{
  "warehouse": [
    {
      "State Name": "",
      "WH_District": "Kohima",
      "WH_Name": "Kohima Pdc",
      "WH_ID": "1307001",
      "Type of WH": "SWC",
      "WH_Lat": "25.6581328",
      "WH_Long": "94.0978809",
      "Storage_Capacity": "13000",
      "Owned/Rented": "",
      "quantity of Wheat stored (Quintals)": ""
    },
    {
      "State Name": "",
      "WH_District": "Kohima",
      "WH_Name": "Chiephobozou Pdc",
      "WH_ID": "1307002",
      "Type of WH": "SWC",
      "WH_Lat": "25.7948009",
      "WH_Long": "94.1310947",
      "Storage_Capacity": "1000",
      "Owned/Rented": "",
      "quantity of Wheat stored (Quintals)": ""
    },
    {
      "State Name": "",
      "WH_District": "Kohima",
      "WH_Name": "Tseminyu Pdc",
      "WH_ID": "1307003",
      "Type of WH": "SWC",
      "WH_Lat": "25.920003",
      "WH_Long": "94.2275828",
      "Storage_Capacity": "700",
      "Owned/Rented": "",
      "quantity of Wheat stored (Quintals)": ""
    },
    {
      "State Name": "",
      "WH_District": "Kiphire",
      "WH_Name": "Kiphire Pdc",
      "WH_ID": "1310001",
      "Type of WH": "SWC",
      "WH_Lat": "25.88669998",
      "WH_Long": "94.78650003",
      "Storage_Capacity": "2880",
      "Owned/Rented": "",
      "quantity of Wheat stored (Quintals)": ""
    },
    {
      "State Name": "",
      "WH_District": "Kiphire",
      "WH_Name": "Seyochung Pdc",
      "WH_ID": "1310005",
      "Type of WH": "SWC",
      "WH_Lat": "25.9259",
      "WH_Long": "94.6448",
      "Storage_Capacity": "1050",
      "Owned/Rented": "",
      "quantity of Wheat stored (Quintals)": ""
    },
    {
      "State Name": "",
      "WH_District": "Kiphire",
      "WH_Name": "Pungro Pdc",
      "WH_ID": "1310003",
      "Type of WH": "SWC",
      "WH_Lat": "25.8141",
      "WH_Long": "94.8433",
      "Storage_Capacity": "2085",
      "Owned/Rented": "",
      "quantity of Wheat stored (Quintals)": ""
    },
    {
      "State Name": "",
      "WH_District": "Kiphire",
      "WH_Name": "Sitimi Pdc",
      "WH_ID": "1310004",
      "Type of WH": "SWC",
      "WH_Lat": "25.8366",
      "WH_Long": "94.6805",
      "Storage_Capacity": "310",
      "Owned/Rented": "",
      "quantity of Wheat stored (Quintals)": ""
    },
    {
      "State Name": "",
      "WH_District": "Tuensang",
      "WH_Name": "Tuensang Pdc",
      "WH_ID": "1302001",
      "Type of WH": "SWC",
      "WH_Lat": "26.2325",
      "WH_Long": "94.8114",
      "Storage_Capacity": "2500",
      "Owned/Rented": "",
      "quantity of Wheat stored (Quintals)": ""
    },
    {
      "State Name": "",
      "WH_District": "Tuensang",
      "WH_Name": "Longkhim Pdc",
      "WH_ID": "1302003",
      "Type of WH": "SWC",
      "WH_Lat": "26.222",
      "WH_Long": "94.6773",
      "Storage_Capacity": "600",
      "Owned/Rented": "",
      "quantity of Wheat stored (Quintals)": ""
    },
    {
      "State Name": "",
      "WH_District": "Tuensang",
      "WH_Name": "Shamator Pdc",
      "WH_ID": "1302009",
      "Type of WH": "SWC",
      "WH_Lat": "26.0693",
      "WH_Long": "94.8736",
      "Storage_Capacity": "600",
      "Owned/Rented": "",
      "quantity of Wheat stored (Quintals)": ""
    },
    {
      "State Name": "",
      "WH_District": "Tuensang",
      "WH_Name": "Chessore Pdc",
      "WH_ID": "1302004",
      "Type of WH": "SWC",
      "WH_Lat": "26.0833",
      "WH_Long": "94.7359",
      "Storage_Capacity": "1000",
      "Owned/Rented": "",
      "quantity of Wheat stored (Quintals)": ""
    },
    {
      "State Name": "",
      "WH_District": "Tuensang",
      "WH_Name": "Noksen Pdc",
      "WH_ID": "1302010",
      "Type of WH": "SWC",
      "WH_Lat": "26.373",
      "WH_Long": "94.7109",
      "Storage_Capacity": "500",
      "Owned/Rented": "",
      "quantity of Wheat stored (Quintals)": ""
    },
    {
      "State Name": "",
      "WH_District": "Tuensang",
      "WH_Name": "Sangsangyu Pdc",
      "WH_ID": "1302005",
      "Type of WH": "SWC",
      "WH_Lat": "26.3287",
      "WH_Long": "94.8963",
      "Storage_Capacity": "300",
      "Owned/Rented": "",
      "quantity of Wheat stored (Quintals)": ""
    },
    {
      "State Name": "",
      "WH_District": "Tuensang",
      "WH_Name": "Chare Pdc",
      "WH_ID": "1302002",
      "Type of WH": "SWC",
      "WH_Lat": "26.3007",
      "WH_Long": "94.6154",
      "Storage_Capacity": "400",
      "Owned/Rented": "",
      "quantity of Wheat stored (Quintals)": ""
    },
    {
      "State Name": "",
      "WH_District": "Wokha",
      "WH_Name": "Wokha Hq.",
      "WH_ID": "1305001",
      "Type of WH": "SWC",
      "WH_Lat": "26.0543",
      "WH_Long": "94.1507",
      "Storage_Capacity": "1000",
      "Owned/Rented": "",
      "quantity of Wheat stored (Quintals)": ""
    },
    {
      "State Name": "",
      "WH_District": "Wokha",
      "WH_Name": "Sanis Pdc",
      "WH_ID": "1305005",
      "Type of WH": "SWC",
      "WH_Lat": "26.1214",
      "WH_Long": "94.1144",
      "Storage_Capacity": "500",
      "Owned/Rented": "",
      "quantity of Wheat stored (Quintals)": ""
    },
    {
      "State Name": "",
      "WH_District": "Wokha",
      "WH_Name": "Aitpyong Pdc",
      "WH_ID": "1305004",
      "Type of WH": "SWC",
      "WH_Lat": "26.1809",
      "WH_Long": "94.1503",
      "Storage_Capacity": "200",
      "Owned/Rented": "",
      "quantity of Wheat stored (Quintals)": ""
    },
    {
      "State Name": "",
      "WH_District": "Wokha",
      "WH_Name": "Lotsu Pdc",
      "WH_ID": "1305006",
      "Type of WH": "SWC",
      "WH_Lat": "26.0431",
      "WH_Long": "94.0442",
      "Storage_Capacity": "200",
      "Owned/Rented": "",
      "quantity of Wheat stored (Quintals)": ""
    },
    {
      "State Name": "",
      "WH_District": "Wokha",
      "WH_Name": "Sungro Pdc",
      "WH_ID": "1305007",
      "Type of WH": "SWC",
      "WH_Lat": "26.1603",
      "WH_Long": "94.2012",
      "Storage_Capacity": "100",
      "Owned/Rented": "",
      "quantity of Wheat stored (Quintals)": ""
    },
    {
      "State Name": "",
      "WH_District": "Wokha",
      "WH_Name": "Bhandari Pdc",
      "WH_ID": "1305002",
      "Type of WH": "SWC",
      "WH_Lat": "26.1703",
      "WH_Long": "94.0715",
      "Storage_Capacity": "1000",
      "Owned/Rented": "",
      "quantity of Wheat stored (Quintals)": ""
    },
    {
      "State Name": "",
      "WH_District": "Wokha",
      "WH_Name": "Ralan Pdc",
      "WH_ID": "1305003",
      "Type of WH": "SWC",
      "WH_Lat": "26.008848",
      "WH_Long": "93.947204",
      "Storage_Capacity": "200",
      "Owned/Rented": "",
      "quantity of Wheat stored (Quintals)": ""
    },
    {
      "State Name": "",
      "WH_District": "Wokha",
      "WH_Name": "Niuland Pdc",
      "WH_ID": "1306002",
      "Type of WH": "SWC",
      "WH_Lat": "25.9302699",
      "WH_Long": "93.9662016",
      "Storage_Capacity": "1000",
      "Owned/Rented": "",
      "quantity of Wheat stored (Quintals)": ""
    },
    {
      "State Name": "",
      "WH_District": "Dimapur",
      "WH_Name": "Dimapur Hq",
      "WH_ID": "1306001",
      "Type of WH": "SWC",
      "WH_Lat": "25.907216",
      "WH_Long": "93.737721",
      "Storage_Capacity": "15000",
      "Owned/Rented": "",
      "quantity of Wheat stored (Quintals)": ""
    },
    {
      "State Name": "",
      "WH_District": "Dimapur",
      "WH_Name": "Medziphema Pdc",
      "WH_ID": "1306005",
      "Type of WH": "SWC",
      "WH_Lat": "25.759729",
      "WH_Long": "93.88224",
      "Storage_Capacity": "1500",
      "Owned/Rented": "",
      "quantity of Wheat stored (Quintals)": ""
    },
    {
      "State Name": "",
      "WH_District": "Dimapur",
      "WH_Name": "Dhansiripar Pdc",
      "WH_ID": "1306004",
      "Type of WH": "SWC",
      "WH_Lat": "25.7843133",
      "WH_Long": "93.6250417",
      "Storage_Capacity": "2000",
      "Owned/Rented": "",
      "quantity of Wheat stored (Quintals)": ""
    },
    {
      "State Name": "",
      "WH_District": "Longleng",
      "WH_Name": "Tamlu Pdc",
      "WH_ID": "1309004",
      "Type of WH": "SWC",
      "WH_Lat": "26.668336",
      "WH_Long": "94.732118",
      "Storage_Capacity": "400",
      "Owned/Rented": "",
      "quantity of Wheat stored (Quintals)": ""
    },
    {
      "State Name": "",
      "WH_District": "Longleng",
      "WH_Name": "Longleng Pdc",
      "WH_ID": "1309001",
      "Type of WH": "SWC",
      "WH_Lat": "26.49002833",
      "WH_Long": "94.81015167",
      "Storage_Capacity": "1500",
      "Owned/Rented": "",
      "quantity of Wheat stored (Quintals)": ""
    },
    {
      "State Name": "",
      "WH_District": "Longleng",
      "WH_Name": "Sakshi Pdc",
      "WH_ID": "1309002",
      "Type of WH": "SWC",
      "WH_Lat": "26.4132492",
      "WH_Long": "94.8765289",
      "Storage_Capacity": "400",
      "Owned/Rented": "",
      "quantity of Wheat stored (Quintals)": ""
    },
    {
      "State Name": "",
      "WH_District": "Longleng",
      "WH_Name": "Yongnyah Pdc",
      "WH_ID": "1309003",
      "Type of WH": "SWC",
      "WH_Lat": "26.58773833",
      "WH_Long": "94.80552",
      "Storage_Capacity": "450",
      "Owned/Rented": "",
      "quantity of Wheat stored (Quintals)": ""
    },
    {
      "State Name": "",
      "WH_District": "Wokha",
      "WH_Name": "Mokokchung Hq ",
      "WH_ID": "1303001",
      "Type of WH": "SWC",
      "WH_Lat": "26.1953",
      "WH_Long": "94.3153",
      "Storage_Capacity": "3000",
      "Owned/Rented": "",
      "quantity of Wheat stored (Quintals)": ""
    },
    {
      "State Name": "",
      "WH_District": "Wokha",
      "WH_Name": "Mangkolemba Pdc",
      "WH_ID": "1303007",
      "Type of WH": "SWC",
      "WH_Lat": "26.2954",
      "WH_Long": "94.262",
      "Storage_Capacity": "1000",
      "Owned/Rented": "",
      "quantity of Wheat stored (Quintals)": ""
    },
    {
      "State Name": "",
      "WH_District": "Mokokchung",
      "WH_Name": "Changtongya Pdc",
      "WH_ID": "1303002",
      "Type of WH": "SWC",
      "WH_Lat": "26.3139",
      "WH_Long": "94.4024",
      "Storage_Capacity": "500",
      "Owned/Rented": "",
      "quantity of Wheat stored (Quintals)": ""
    },
    {
      "State Name": "",
      "WH_District": "Wokha",
      "WH_Name": "Alongkima Pdc",
      "WH_ID": "1303004",
      "Type of WH": "SWC",
      "WH_Lat": "26.3233",
      "WH_Long": "94.3056",
      "Storage_Capacity": "250",
      "Owned/Rented": "",
      "quantity of Wheat stored (Quintals)": ""
    },
    {
      "State Name": "",
      "WH_District": "Wokha",
      "WH_Name": "Longchem Pdc",
      "WH_ID": "1303008",
      "Type of WH": "SWC",
      "WH_Lat": "26.3654",
      "WH_Long": "94.2957",
      "Storage_Capacity": "250",
      "Owned/Rented": "",
      "quantity of Wheat stored (Quintals)": ""
    },
    {
      "State Name": "",
      "WH_District": "Mokokchung",
      "WH_Name": "Chuchuyimlang Pdc",
      "WH_ID": "1303005",
      "Type of WH": "SWC",
      "WH_Lat": "26.2743",
      "WH_Long": "94.383",
      "Storage_Capacity": "500",
      "Owned/Rented": "",
      "quantity of Wheat stored (Quintals)": ""
    },
    {
      "State Name": "",
      "WH_District": "Wokha",
      "WH_Name": "Kobulong Pdc",
      "WH_ID": "1303006",
      "Type of WH": "SWC",
      "WH_Lat": "26.2445",
      "WH_Long": "94.3207",
      "Storage_Capacity": "300",
      "Owned/Rented": "",
      "quantity of Wheat stored (Quintals)": ""
    },
    {
      "State Name": "",
      "WH_District": "Mokokchung",
      "WH_Name": "Tuli Pdc",
      "WH_ID": "1303003",
      "Type of WH": "SWC",
      "WH_Lat": "26.3947",
      "WH_Long": "94.3841",
      "Storage_Capacity": "700",
      "Owned/Rented": "",
      "quantity of Wheat stored (Quintals)": ""
    },
    {
      "State Name": "",
      "WH_District": "Mon",
      "WH_Name": "Chen Pdc",
      "WH_ID": "1301001",
      "Type of WH": "SWC",
      "WH_Lat": "26.5809",
      "WH_Long": "95.079",
      "Storage_Capacity": "700",
      "Owned/Rented": "",
      "quantity of Wheat stored (Quintals)": ""
    },
    {
      "State Name": "",
      "WH_District": "Mon",
      "WH_Name": "Phomching Pdc",
      "WH_ID": "1301003",
      "Type of WH": "SWC",
      "WH_Lat": "26.685432",
      "WH_Long": "95.183228",
      "Storage_Capacity": "1300",
      "Owned/Rented": "",
      "quantity of Wheat stored (Quintals)": ""
    },
    {
      "State Name": "",
      "WH_District": "Mon",
      "WH_Name": "Mopung Pdc",
      "WH_ID": "1301011",
      "Type of WH": "SWC",
      "WH_Lat": "26.423147",
      "WH_Long": "94.95078",
      "Storage_Capacity": "650",
      "Owned/Rented": "",
      "quantity of Wheat stored (Quintals)": ""
    },
    {
      "State Name": "",
      "WH_District": "Mon",
      "WH_Name": "Naginimora Pdc",
      "WH_ID": "1301008",
      "Type of WH": "SWC",
      "WH_Lat": "26.817472",
      "WH_Long": "94.810314",
      "Storage_Capacity": "400",
      "Owned/Rented": "",
      "quantity of Wheat stored (Quintals)": ""
    },
    {
      "State Name": "",
      "WH_District": "Mon",
      "WH_Name": "Monyakshu Pdc",
      "WH_ID": "1301006",
      "Type of WH": "SWC",
      "WH_Lat": "26.437542",
      "WH_Long": "95.029444",
      "Storage_Capacity": "800",
      "Owned/Rented": "",
      "quantity of Wheat stored (Quintals)": ""
    },
    {
      "State Name": "",
      "WH_District": "Mon",
      "WH_Name": "Wakching Pdc",
      "WH_ID": "1301012",
      "Type of WH": "SWC",
      "WH_Lat": "26.700473",
      "WH_Long": "94.900186",
      "Storage_Capacity": "650",
      "Owned/Rented": "",
      "quantity of Wheat stored (Quintals)": ""
    },
    {
      "State Name": "",
      "WH_District": "Mon",
      "WH_Name": "Tizit Pdc",
      "WH_ID": "1301004",
      "Type of WH": "SWC",
      "WH_Lat": "26.885544",
      "WH_Long": "95.082316",
      "Storage_Capacity": "200",
      "Owned/Rented": "",
      "quantity of Wheat stored (Quintals)": ""
    },
    {
      "State Name": "",
      "WH_District": "Mon",
      "WH_Name": "Tobu Pdc",
      "WH_ID": "1301005",
      "Type of WH": "SWC",
      "WH_Lat": "26.367193",
      "WH_Long": "94.936419",
      "Storage_Capacity": "700",
      "Owned/Rented": "",
      "quantity of Wheat stored (Quintals)": ""
    },
    {
      "State Name": "",
      "WH_District": "Mon",
      "WH_Name": "Aboi Pdc",
      "WH_ID": "1301010",
      "Type of WH": "SWC",
      "WH_Lat": "26.604899",
      "WH_Long": "94.965449",
      "Storage_Capacity": "800",
      "Owned/Rented": "",
      "quantity of Wheat stored (Quintals)": ""
    },
    {
      "State Name": "",
      "WH_District": "Mon",
      "WH_Name": "Mon Hq",
      "WH_ID": "1301009",
      "Type of WH": "SWC",
      "WH_Lat": "26.717994",
      "WH_Long": "95.025529",
      "Storage_Capacity": "2000",
      "Owned/Rented": "",
      "quantity of Wheat stored (Quintals)": ""
    },
    {
      "State Name": "",
      "WH_District": "Mon",
      "WH_Name": "Longching Pdc",
      "WH_ID": "1301002",
      "Type of WH": "SWC",
      "WH_Lat": "26.4829",
      "WH_Long": "94.9485",
      "Storage_Capacity": "800",
      "Owned/Rented": "",
      "quantity of Wheat stored (Quintals)": ""
    },
    {
      "State Name": "",
      "WH_District": "Peren",
      "WH_Name": "Jalukie Pdc",
      "WH_ID": "1311003",
      "Type of WH": "SWC",
      "WH_Lat": "25.6510855",
      "WH_Long": "93.6639646",
      "Storage_Capacity": "1500",
      "Owned/Rented": "",
      "quantity of Wheat stored (Quintals)": ""
    },
    {
      "State Name": "",
      "WH_District": "Peren",
      "WH_Name": "Nsong Pdc",
      "WH_ID": "1311004",
      "Type of WH": "SWC",
      "WH_Lat": "25.29547",
      "WH_Long": "93.5523089",
      "Storage_Capacity": "500",
      "Owned/Rented": "",
      "quantity of Wheat stored (Quintals)": ""
    },
    {
      "State Name": "",
      "WH_District": "Peren",
      "WH_Name": "Peren Hq ",
      "WH_ID": "1311001",
      "Type of WH": "SWC",
      "WH_Lat": "25.541044",
      "WH_Long": "93.734393",
      "Storage_Capacity": "2000",
      "Owned/Rented": "",
      "quantity of Wheat stored (Quintals)": ""
    },
    {
      "State Name": "",
      "WH_District": "Peren",
      "WH_Name": "Tening Pdc",
      "WH_ID": "1311002",
      "Type of WH": "SWC",
      "WH_Lat": "25.3480581",
      "WH_Long": "93.5969445",
      "Storage_Capacity": "1500",
      "Owned/Rented": "",
      "quantity of Wheat stored (Quintals)": ""
    },
    {
      "State Name": "",
      "WH_District": "Peren",
      "WH_Name": "Athibung Pdc",
      "WH_ID": "1311005",
      "Type of WH": "SWC",
      "WH_Lat": "25.5496177",
      "WH_Long": "93.620204",
      "Storage_Capacity": "1000",
      "Owned/Rented": "",
      "quantity of Wheat stored (Quintals)": ""
    },
    {
      "State Name": "",
      "WH_District": "Phek",
      "WH_Name": "Chozuba Pdc",
      "WH_ID": "1308009",
      "Type of WH": "SWC",
      "WH_Lat": "25.732644",
      "WH_Long": "94.3252598",
      "Storage_Capacity": "1000",
      "Owned/Rented": "",
      "quantity of Wheat stored (Quintals)": ""
    },
    {
      "State Name": "",
      "WH_District": "Zunheboto",
      "WH_Name": "Phek Hq",
      "WH_ID": "1308001",
      "Type of WH": "SWC",
      "WH_Lat": "25.9221",
      "WH_Long": "94.2738",
      "Storage_Capacity": "2000",
      "Owned/Rented": "",
      "quantity of Wheat stored (Quintals)": ""
    },
    {
      "State Name": "",
      "WH_District": "Phek",
      "WH_Name": "Chizami Pdc",
      "WH_ID": "1308003",
      "Type of WH": "SWC",
      "WH_Lat": "25.599122",
      "WH_Long": "94.3935318",
      "Storage_Capacity": "500",
      "Owned/Rented": "",
      "quantity of Wheat stored (Quintals)": ""
    },
    {
      "State Name": "",
      "WH_District": "Phek",
      "WH_Name": "Khezhzkeno Pdc",
      "WH_ID": "1308007",
      "Type of WH": "SWC",
      "WH_Lat": "25.511559",
      "WH_Long": "94.1988185",
      "Storage_Capacity": "500",
      "Owned/Rented": "",
      "quantity of Wheat stored (Quintals)": ""
    },
    {
      "State Name": "",
      "WH_District": "Phek",
      "WH_Name": "Meluri Pdc",
      "WH_ID": "1308002",
      "Type of WH": "SWC",
      "WH_Lat": "25.6866531",
      "WH_Long": "94.6296668",
      "Storage_Capacity": "2000",
      "Owned/Rented": "",
      "quantity of Wheat stored (Quintals)": ""
    },
    {
      "State Name": "",
      "WH_District": "Phek",
      "WH_Name": "Pfutsero Pdc",
      "WH_ID": "1308005",
      "Type of WH": "SWC",
      "WH_Lat": "25.5770573",
      "WH_Long": "94.306124",
      "Storage_Capacity": "1500",
      "Owned/Rented": "",
      "quantity of Wheat stored (Quintals)": ""
    },
    {
      "State Name": "",
      "WH_District": "Phek",
      "WH_Name": "Chetheba Pdc",
      "WH_ID": "1308004",
      "Type of WH": "SWC",
      "WH_Lat": "25.6680794",
      "WH_Long": "94.2616254",
      "Storage_Capacity": "1000",
      "Owned/Rented": "",
      "quantity of Wheat stored (Quintals)": ""
    },
    {
      "State Name": "",
      "WH_District": "Phek",
      "WH_Name": "Sekrezu Pdc",
      "WH_ID": "1308008",
      "Type of WH": "SWC",
      "WH_Lat": "25.776885",
      "WH_Long": "94.383195",
      "Storage_Capacity": "1000",
      "Owned/Rented": "",
      "quantity of Wheat stored (Quintals)": ""
    },
    {
      "State Name": "",
      "WH_District": "Phek",
      "WH_Name": "Phokungri Pdc",
      "WH_ID": "1308006",
      "Type of WH": "SWC",
      "WH_Lat": "25.6680768",
      "WH_Long": "94.2616134",
      "Storage_Capacity": "1000",
      "Owned/Rented": "",
      "quantity of Wheat stored (Quintals)": ""
    },
    {
      "State Name": "",
      "WH_District": "Zunheboto",
      "WH_Name": "Zunheboto Hq",
      "WH_ID": "1304001",
      "Type of WH": "SWC",
      "WH_Lat": "26.0075",
      "WH_Long": "94.5206",
      "Storage_Capacity": "3000",
      "Owned/Rented": "",
      "quantity of Wheat stored (Quintals)": ""
    },
    {
      "State Name": "",
      "WH_District": "Zunheboto",
      "WH_Name": "Satakha Pdc",
      "WH_ID": "1304007",
      "Type of WH": "SWC",
      "WH_Lat": "25.9249",
      "WH_Long": "94.4391",
      "Storage_Capacity": "2000",
      "Owned/Rented": "",
      "quantity of Wheat stored (Quintals)": ""
    },
    {
      "State Name": "",
      "WH_District": "Zunheboto",
      "WH_Name": "Aghunato Pdc",
      "WH_ID": "1304006",
      "Type of WH": "SWC",
      "WH_Lat": "26.0089",
      "WH_Long": "94.628",
      "Storage_Capacity": "800",
      "Owned/Rented": "",
      "quantity of Wheat stored (Quintals)": ""
    },
    {
      "State Name": "",
      "WH_District": "Zunheboto",
      "WH_Name": "Asuto Pdc",
      "WH_ID": "1304005",
      "Type of WH": "SWC",
      "WH_Lat": "26.1182",
      "WH_Long": "94.6439",
      "Storage_Capacity": "700",
      "Owned/Rented": "",
      "quantity of Wheat stored (Quintals)": ""
    },
    {
      "State Name": "",
      "WH_District": "Zunheboto",
      "WH_Name": "Atoizu Pdc",
      "WH_ID": "1304011",
      "Type of WH": "SWC",
      "WH_Lat": "26.109",
      "WH_Long": "94.5153",
      "Storage_Capacity": "500",
      "Owned/Rented": "",
      "quantity of Wheat stored (Quintals)": ""
    },
    {
      "State Name": "",
      "WH_District": "Zunheboto",
      "WH_Name": "Akuluto Pdc",
      "WH_ID": "1304004",
      "Type of WH": "SWC",
      "WH_Lat": "26.173",
      "WH_Long": "94.4954",
      "Storage_Capacity": "350",
      "Owned/Rented": "",
      "quantity of Wheat stored (Quintals)": ""
    },
    {
      "State Name": "",
      "WH_District": "Zunheboto",
      "WH_Name": "Ghatashi Pdc",
      "WH_ID": "1304008",
      "Type of WH": "SWC",
      "WH_Lat": "25.8532",
      "WH_Long": "94.3301",
      "Storage_Capacity": "400",
      "Owned/Rented": "",
      "quantity of Wheat stored (Quintals)": ""
    },
    {
      "State Name": "",
      "WH_District": "Zunheboto",
      "WH_Name": "Vk Pdc",
      "WH_ID": "1304002",
      "Type of WH": "SWC",
      "WH_Lat": "26.181",
      "WH_Long": "94.4132",
      "Storage_Capacity": "300",
      "Owned/Rented": "",
      "quantity of Wheat stored (Quintals)": ""
    },
    {
      "State Name": "",
      "WH_District": "Zunheboto",
      "WH_Name": "Suruhuto Pdc",
      "WH_ID": "1304003",
      "Type of WH": "SWC",
      "WH_Lat": "26.1466",
      "WH_Long": "94.5909",
      "Storage_Capacity": "700",
      "Owned/Rented": "",
      "quantity of Wheat stored (Quintals)": ""
    },
    {
      "State Name": "",
      "WH_District": "Zunheboto",
      "WH_Name": "Poghoboto Pdc",
      "WH_ID": "1304009",
      "Type of WH": "SWC",
      "WH_Lat": "25.8896",
      "WH_Long": "94.2669",
      "Storage_Capacity": "900",
      "Owned/Rented": "",
      "quantity of Wheat stored (Quintals)": ""
    },
    {
      "State Name": "",
      "WH_District": "Zunheboto",
      "WH_Name": "Satoi Pdc",
      "WH_ID": "1304010",
      "Type of WH": "SWC",
      "WH_Lat": "25.8309",
      "WH_Long": "94.578",
      "Storage_Capacity": "500",
      "Owned/Rented": "",
      "quantity of Wheat stored (Quintals)": ""
    },
    {
      "State Name": "",
      "WH_District": "Noklak",
      "WH_Name": "Noklak Pdc",
      "WH_ID": "1312007",
      "Type of WH": "SWC",
      "WH_Lat": "26.201824",
      "WH_Long": "95.018472",
      "Storage_Capacity": "1000",
      "Owned/Rented": "",
      "quantity of Wheat stored (Quintals)": ""
    },
    {
      "State Name": "",
      "WH_District": "Noklak",
      "WH_Name": "Panso Pdc",
      "WH_ID": "1312008",
      "Type of WH": "SWC",
      "WH_Lat": "26.104713",
      "WH_Long": "94.926338",
      "Storage_Capacity": "400",
      "Owned/Rented": "",
      "quantity of Wheat stored (Quintals)": ""
    },
    {
      "State Name": "",
      "WH_District": "Noklak",
      "WH_Name": "Thonoknyu Pdc",
      "WH_ID": "1312006",
      "Type of WH": "SWC",
      "WH_Lat": "25.986611",
      "WH_Long": "94.905438",
      "Storage_Capacity": "450",
      "Owned/Rented": "",
      "quantity of Wheat stored (Quintals)": ""
    }
  ],
  "fps": [
    {
      "State Name": "",
      "FPS_District": "Dimapur",
      "FPS_Name": "AGHUNAQA VILLAGE",
      "FPS_ID": "126800100036",
      "Motorable/Non-Motorable": "Normal",
      "FPS_Lat": "26.0361",
      "FPS_Long": "93.8989",
      "Allocation_Wheat": 0.0,
      "Allocation_Rice": 1.65,
      "FPS_Tehsil": ""
    },
    {
      "State Name": "",
      "FPS_District": "Dimapur",
      "FPS_Name": "AHOTO VILLAGE",
      "FPS_ID": "126800100037",
      "Motorable/Non-Motorable": "Normal",
      "FPS_Lat": "26.018",
      "FPS_Long": "93.8291",
      "Allocation_Wheat": 0.0,
      "Allocation_Rice": 7.7,
      "FPS_Tehsil": ""
    },
    {
      "State Name": "",
      "FPS_District": "Dimapur",
      "FPS_Name": "AOYIMCHEN VILLAGE",
      "FPS_ID": "126800100038",
      "Motorable/Non-Motorable": "Normal",
      "FPS_Lat": "26.03815401",
      "FPS_Long": "93.85622403",
      "Allocation_Wheat": 0.0,
      "Allocation_Rice": 4.25,
      "FPS_Tehsil": ""
    },
    {
      "State Name": "",
      "FPS_District": "Dimapur",
      "FPS_Name": "GHOSHITO VILLAGE",
      "FPS_ID": "126800100039",
      "Motorable/Non-Motorable": "Normal",
      "FPS_Lat": "25.99723402",
      "FPS_Long": "93.88556803",
      "Allocation_Wheat": 0.0,
      "Allocation_Rice": 19.25,
      "FPS_Tehsil": ""
    },
    {
      "State Name": "",
      "FPS_District": "Dimapur",
      "FPS_Name": "HEVUXU VILLAGE",
      "FPS_ID": "126800100040",
      "Motorable/Non-Motorable": "Normal",
      "FPS_Lat": "26.05386831",
      "FPS_Long": "93.85402501",
      "Allocation_Wheat": 0.0,
      "Allocation_Rice": 5.2,
      "FPS_Tehsil": ""
    },
    {
      "State Name": "",
      "FPS_District": "Dimapur",
      "FPS_Name": "HOMELAND VILLAGE",
      "FPS_ID": "126800100041",
      "Motorable/Non-Motorable": "Normal",
      "FPS_Lat": "25.98779",
      "FPS_Long": "93.85437401",
      "Allocation_Wheat": 0.0,
      "Allocation_Rice": 22.9,
      "FPS_Tehsil": ""
    },
    {
      "State Name": "",
      "FPS_District": "Dimapur",
      "FPS_Name": "HUKHAI VILLAGE",
      "FPS_ID": "126800100042",
      "Motorable/Non-Motorable": "Normal",
      "FPS_Lat": "26.0677",
      "FPS_Long": "93.9062",
      "Allocation_Wheat": 0.0,
      "Allocation_Rice": 10.7,
      "FPS_Tehsil": ""
    },
    {
      "State Name": "",
      "FPS_District": "Dimapur",
      "FPS_Name": "HUSTO VILLAGE",
      "FPS_ID": "126800100043",
      "Motorable/Non-Motorable": "Normal",
      "FPS_Lat": "26.01200403",
      "FPS_Long": "93.87494902",
      "Allocation_Wheat": 0.0,
      "Allocation_Rice": 8.4,
      "FPS_Tehsil": ""
    },
    {
      "State Name": "",
      "FPS_District": "Dimapur",
      "FPS_Name": "IZHEVI VILLAGE",
      "FPS_ID": "126800100045",
      "Motorable/Non-Motorable": "Normal",
      "FPS_Lat": "26.103",
      "FPS_Long": "93.9345",
      "Allocation_Wheat": 0.0,
      "Allocation_Rice": 9.9,
      "FPS_Tehsil": ""
    },
    {
      "State Name": "",
      "FPS_District": "Dimapur",
      "FPS_Name": "KHEHUTO VILLAGE",
      "FPS_ID": "126800100046",
      "Motorable/Non-Motorable": "Normal",
      "FPS_Lat": "26.01575397",
      "FPS_Long": "93.811575",
      "Allocation_Wheat": 0.0,
      "Allocation_Rice": 8.6,
      "FPS_Tehsil": ""
    },
    {
      "State Name": "",
      "FPS_District": "Dimapur",
      "FPS_Name": "KHUTOVI VILLAGE",
      "FPS_ID": "126800100047",
      "Motorable/Non-Motorable": "Normal",
      "FPS_Lat": "26.0926",
      "FPS_Long": "93.9356",
      "Allocation_Wheat": 0.0,
      "Allocation_Rice": 9.85,
      "FPS_Tehsil": ""
    },
    {
      "State Name": "",
      "FPS_District": "Dimapur",
      "FPS_Name": "KIKHEYE VILLAGE",
      "FPS_ID": "126800100048",
      "Motorable/Non-Motorable": "Normal",
      "FPS_Lat": "26.01268502",
      "FPS_Long": "93.89022199",
      "Allocation_Wheat": 0.0,
      "Allocation_Rice": 12.2,
      "FPS_Tehsil": ""
    },
    {
      "State Name": "",
      "FPS_District": "Dimapur",
      "FPS_Name": "L VIHOTO VILLAGE",
      "FPS_ID": "126800100049",
      "Motorable/Non-Motorable": "Normal",
      "FPS_Lat": "26.0512",
      "FPS_Long": "93.8529",
      "Allocation_Wheat": 0.0,
      "Allocation_Rice": 7.2,
      "FPS_Tehsil": ""
    },
    {
      "State Name": "",
      "FPS_District": "Dimapur",
      "FPS_Name": "LUHEVI VILLAGE",
      "FPS_ID": "126800100050",
      "Motorable/Non-Motorable": "Normal",
      "FPS_Lat": "26.0945",
      "FPS_Long": "93.8748",
      "Allocation_Wheat": 0.0,
      "Allocation_Rice": 8.35,
      "FPS_Tehsil": ""
    },
    {
      "State Name": "",
      "FPS_District": "Dimapur",
      "FPS_Name": "LUHEZHE VILLAGE",
      "FPS_ID": "126800100051",
      "Motorable/Non-Motorable": "Normal",
      "FPS_Lat": "26.078909",
      "FPS_Long": "93.84562397",
      "Allocation_Wheat": 0.0,
      "Allocation_Rice": 7.35,
      "FPS_Tehsil": ""
    },
    {
      "State Name": "",
      "FPS_District": "Dimapur",
      "FPS_Name": "MUGHAVI",
      "FPS_ID": "126800100052",
      "Motorable/Non-Motorable": "Normal",
      "FPS_Lat": "26.0677",
      "FPS_Long": "93.8881",
      "Allocation_Wheat": 0.0,
      "Allocation_Rice": 10.7,
      "FPS_Tehsil": ""
    },
    {
      "State Name": "",
      "FPS_District": "Dimapur",
      "FPS_Name": "NGAMJALAN VILLAGE",
      "FPS_ID": "126800100053",
      "Motorable/Non-Motorable": "Normal",
      "FPS_Lat": "26.030956",
      "FPS_Long": "93.856294",
      "Allocation_Wheat": 0.0,
      "Allocation_Rice": 3.8,
      "FPS_Tehsil": ""
    },
    {
      "State Name": "",
      "FPS_District": "Dimapur",
      "FPS_Name": "NGUVIHE VILLAGE",
      "FPS_ID": "126800100054",
      "Motorable/Non-Motorable": "Normal",
      "FPS_Lat": "26.08123101",
      "FPS_Long": "93.86977802",
      "Allocation_Wheat": 0.0,
      "Allocation_Rice": 11.1,
      "FPS_Tehsil": ""
    },
    {
      "State Name": "",
      "FPS_District": "Dimapur",
      "FPS_Name": "NIKIHE VILLAGE ",
      "FPS_ID": "126800100055",
      "Motorable/Non-Motorable": "Normal",
      "FPS_Lat": "26.1008",
      "FPS_Long": "93.9279",
      "Allocation_Wheat": 0.0,
      "Allocation_Rice": 5.8,
      "FPS_Tehsil": ""
    },
    {
      "State Name": "",
      "FPS_District": "Dimapur",
      "FPS_Name": "NIKIKHE VILLAGE",
      "FPS_ID": "126800100056",
      "Motorable/Non-Motorable": "Normal",
      "FPS_Lat": "26.0298",
      "FPS_Long": "93.8739",
      "Allocation_Wheat": 0.0,
      "Allocation_Rice": 12.75,
      "FPS_Tehsil": ""
    },
    {
      "State Name": "",
      "FPS_District": "Dimapur",
      "FPS_Name": "NITOZU VILLAGE",
      "FPS_ID": "126800100057",
      "Motorable/Non-Motorable": "Normal",
      "FPS_Lat": "26.0579",
      "FPS_Long": "93.8449",
      "Allocation_Wheat": 0.0,
      "Allocation_Rice": 11.5,
      "FPS_Tehsil": ""
    },
    {
      "State Name": "",
      "FPS_District": "Dimapur",
      "FPS_Name": "P. VIHOTO VILLAGE",
      "FPS_ID": "126800100058",
      "Motorable/Non-Motorable": "Normal",
      "FPS_Lat": "26.0723",
      "FPS_Long": "93.878",
      "Allocation_Wheat": 0.0,
      "Allocation_Rice": 16.4,
      "FPS_Tehsil": ""
    },
    {
      "State Name": "",
      "FPS_District": "Dimapur",
      "FPS_Name": "PIHEKHU VILLAGE",
      "FPS_ID": "126800100059",
      "Motorable/Non-Motorable": "Normal",
      "FPS_Lat": "26.0411",
      "FPS_Long": "93.8864",
      "Allocation_Wheat": 0.0,
      "Allocation_Rice": 19.3,
      "FPS_Tehsil": ""
    },
    {
      "State Name": "",
      "FPS_District": "Dimapur",
      "FPS_Name": "QHUHOI VILLAGE",
      "FPS_ID": "126800100060",
      "Motorable/Non-Motorable": "Normal",
      "FPS_Lat": "26.0334",
      "FPS_Long": "93.8723",
      "Allocation_Wheat": 0.0,
      "Allocation_Rice": 14.1,
      "FPS_Tehsil": ""
    },
    {
      "State Name": "",
      "FPS_District": "Dimapur",
      "FPS_Name": "R HOVISHE",
      "FPS_ID": "126800100061",
      "Motorable/Non-Motorable": "Normal",
      "FPS_Lat": "26.1081",
      "FPS_Long": "93.9183",
      "Allocation_Wheat": 0.0,
      "Allocation_Rice": 4.65,
      "FPS_Tehsil": ""
    },
    {
      "State Name": "",
      "FPS_District": "Dimapur",
      "FPS_Name": "SHIWOTO VILLAGE",
      "FPS_ID": "126800100062",
      "Motorable/Non-Motorable": "Normal",
      "FPS_Lat": "26.05539401",
      "FPS_Long": "93.85151601",
      "Allocation_Wheat": 0.0,
      "Allocation_Rice": 5.4,
      "FPS_Tehsil": ""
    },
    {
      "State Name": "",
      "FPS_District": "Dimapur",
      "FPS_Name": "SHOKHEVI VILLAGE",
      "FPS_ID": "126800100063",
      "Motorable/Non-Motorable": "Normal",
      "FPS_Lat": "26.0724",
      "FPS_Long": "93.8364",
      "Allocation_Wheat": 0.0,
      "Allocation_Rice": 6.35,
      "FPS_Tehsil": ""
    },
    {
      "State Name": "",
      "FPS_District": "Dimapur",
      "FPS_Name": "TOHOI VILLAGE",
      "FPS_ID": "126800100064",
      "Motorable/Non-Motorable": "Normal",
      "FPS_Lat": "26.0175",
      "FPS_Long": "93.8698",
      "Allocation_Wheat": 0.0,
      "Allocation_Rice": 11.6,
      "FPS_Tehsil": ""
    },
    {
      "State Name": "",
      "FPS_District": "Dimapur",
      "FPS_Name": "TOHOKHU VILLAGE",
      "FPS_ID": "126800100065",
      "Motorable/Non-Motorable": "Normal",
      "FPS_Lat": "26.1228",
      "FPS_Long": "93.9295",
      "Allocation_Wheat": 0.0,
      "Allocation_Rice": 2.45,
      "FPS_Tehsil": ""
    },
    {
      "State Name": "",
      "FPS_District": "Dimapur",
      "FPS_Name": "TOKISHE VILLAGE",
      "FPS_ID": "126800100066",
      "Motorable/Non-Motorable": "Normal",
      "FPS_Lat": "26.056761",
      "FPS_Long": "93.91661698",
      "Allocation_Wheat": 0.0,
      "Allocation_Rice": 15.85,
      "FPS_Tehsil": ""
    },
    {
      "State Name": "",
      "FPS_District": "Dimapur",
      "FPS_Name": "VIKHETO VILLAGE",
      "FPS_ID": "126800100067",
      "Motorable/Non-Motorable": "Normal",
      "FPS_Lat": "26.07761899",
      "FPS_Long": "93.93110199",
      "Allocation_Wheat": 0.0,
      "Allocation_Rice": 11.55,
      "FPS_Tehsil": ""
    },
    {
      "State Name": "",
      "FPS_District": "Dimapur",
      "FPS_Name": "XUKHUVI VILLAGE",
      "FPS_ID": "126800100068",
      "Motorable/Non-Motorable": "Normal",
      "FPS_Lat": "26.097169",
      "FPS_Long": "93.874699",
      "Allocation_Wheat": 0.0,
      "Allocation_Rice": 7.7,
      "FPS_Tehsil": ""
    },
    {
      "State Name": "",
      "FPS_District": "Dimapur",
      "FPS_Name": "YETOHO VILLAGE",
      "FPS_ID": "126800100069",
      "Motorable/Non-Motorable": "Normal",
      "FPS_Lat": "26.1079",
      "FPS_Long": "93.8845",
      "Allocation_Wheat": 0.0,
      "Allocation_Rice": 11.8,
      "FPS_Tehsil": ""
    },
    {
      "State Name": "",
      "FPS_District": "Dimapur",
      "FPS_Name": "ZHEXUCHE",
      "FPS_ID": "126800100070",
      "Motorable/Non-Motorable": "Normal",
      "FPS_Lat": "26.0222",
      "FPS_Long": "93.8192",
      "Allocation_Wheat": 0.0,
      "Allocation_Rice": 7.65,
      "FPS_Tehsil": ""
    },
    {
      "State Name": "",
      "FPS_District": "Dimapur",
      "FPS_Name": "ZUTOI VILLAGE",
      "FPS_ID": "126800100071",
      "Motorable/Non-Motorable": "Normal",
      "FPS_Lat": "26.0824",
      "FPS_Long": "93.9327",
      "Allocation_Wheat": 0.0,
      "Allocation_Rice": 12.65,
      "FPS_Tehsil": ""
    },
    {
      "State Name": "",
      "FPS_District": "Dimapur",
      "FPS_Name": "JEKISHE VILLAGE",
      "FPS_ID": "126800100073",
      "Motorable/Non-Motorable": "Normal",
      "FPS_Lat": "26.0661",
      "FPS_Long": "93.9217",
      "Allocation_Wheat": 0.0,
      "Allocation_Rice": 13.8,
      "FPS_Tehsil": ""
    },
    {
      "State Name": "",
      "FPS_District": "Dimapur",
      "FPS_Name": "HOZHETO VILLAGE",
      "FPS_ID": "126800100074",
      "Motorable/Non-Motorable": "Normal",
      "FPS_Lat": "26.0105",
      "FPS_Long": "93.8934",
      "Allocation_Wheat": 0.0,
      "Allocation_Rice": 11.5,
      "FPS_Tehsil": ""
    },
    {
      "State Name": "",
      "FPS_District": "Dimapur",
      "FPS_Name": "NIZHETO VILLAGE",
      "FPS_ID": "126800100075",
      "Motorable/Non-Motorable": "Normal",
      "FPS_Lat": "26.0413",
      "FPS_Long": "93.8981",
      "Allocation_Wheat": 0.0,
      "Allocation_Rice": 2.85,
      "FPS_Tehsil": ""
    },
    {
      "State Name": "",
      "FPS_District": "Dimapur",
      "FPS_Name": "ZAKA STATION VILLAGE",
      "FPS_ID": "126800100076",
      "Motorable/Non-Motorable": "Normal",
      "FPS_Lat": "25.9969",
      "FPS_Long": "93.8348",
      "Allocation_Wheat": 0.0,
      "Allocation_Rice": 3.65,
      "FPS_Tehsil": ""
    },
    {
      "State Name": "",
      "FPS_District": "Dimapur",
      "FPS_Name": "K.G.KAMEI ",
      "FPS_ID": "126800200004",
      "Motorable/Non-Motorable": "Normal",
      "FPS_Lat": "25.91",
      "FPS_Long": "93.73",
      "Allocation_Wheat": 0.0,
      "Allocation_Rice": 88.65,
      "FPS_Tehsil": ""
    },
    {
      "State Name": "",
      "FPS_District": "Dimapur",
      "FPS_Name": "C.P.GONMEI ",
      "FPS_ID": "126800200005",
      "Motorable/Non-Motorable": "Normal",
      "FPS_Lat": "25.91",
      "FPS_Long": "93.73",
      "Allocation_Wheat": 0.0,
      "Allocation_Rice": 87.3,
      "FPS_Tehsil": ""
    },
    {
      "State Name": "",
      "FPS_District": "Dimapur",
      "FPS_Name": "HOKUTO",
      "FPS_ID": "126800200006",
      "Motorable/Non-Motorable": "Normal",
      "FPS_Lat": "25.91",
      "FPS_Long": "93.73",
      "Allocation_Wheat": 0.0,
      "Allocation_Rice": 57.45,
      "FPS_Tehsil": ""
    },
    {
      "State Name": "",
      "FPS_District": "Dimapur",
      "FPS_Name": "A S ATULA ",
      "FPS_ID": "126800200008",
      "Motorable/Non-Motorable": "Normal",
      "FPS_Lat": "25.89",
      "FPS_Long": "93.72",
      "Allocation_Wheat": 0.0,
      "Allocation_Rice": 114.55,
      "FPS_Tehsil": ""
    },
    {
      "State Name": "",
      "FPS_District": "Dimapur",
      "FPS_Name": "ALLONG LONGKUMER",
      "FPS_ID": "126800200009",
      "Motorable/Non-Motorable": "Normal",
      "FPS_Lat": "25.89",
      "FPS_Long": "93.71",
      "Allocation_Wheat": 0.0,
      "Allocation_Rice": 90.15,
      "FPS_Tehsil": ""
    },
    {
      "State Name": "",
      "FPS_District": "Dimapur",
      "FPS_Name": "Z NIHOTO",
      "FPS_ID": "126800200010",
      "Motorable/Non-Motorable": "Normal",
      "FPS_Lat": "25.9",
      "FPS_Long": "93.74",
      "Allocation_Wheat": 0.0,
      "Allocation_Rice": 88.15,
      "FPS_Tehsil": ""
    },
    {
      "State Name": "",
      "FPS_District": "Dimapur",
      "FPS_Name": "MEYI AO",
      "FPS_ID": "126800200011",
      "Motorable/Non-Motorable": "Normal",
      "FPS_Lat": "25.91",
      "FPS_Long": "93.73",
      "Allocation_Wheat": 0.0,
      "Allocation_Rice": 108.55,
      "FPS_Tehsil": ""
    },
    {
      "State Name": "",
      "FPS_District": "Dimapur",
      "FPS_Name": "ALEMLA LONGKUMER",
      "FPS_ID": "126800200012",
      "Motorable/Non-Motorable": "Normal",
      "FPS_Lat": "25.91",
      "FPS_Long": "93.71",
      "Allocation_Wheat": 0.0,
      "Allocation_Rice": 81.25,
      "FPS_Tehsil": ""
    },
    {
      "State Name": "",
      "FPS_District": "Dimapur",
      "FPS_Name": "N LOTHA",
      "FPS_ID": "126800200014",
      "Motorable/Non-Motorable": "Normal",
      "FPS_Lat": "25.9",
      "FPS_Long": "93.7",
      "Allocation_Wheat": 0.0,
      "Allocation_Rice": 97.05,
      "FPS_Tehsil": ""
    },
    {
      "State Name": "",
      "FPS_District": "Dimapur",
      "FPS_Name": "DORIN M ",
      "FPS_ID": "126800200016",
      "Motorable/Non-Motorable": "Normal",
      "FPS_Lat": "25.9",
      "FPS_Long": "93.71",
      "Allocation_Wheat": 0.0,
      "Allocation_Rice": 51.2,
      "FPS_Tehsil": ""
    },
    {
      "State Name": "",
      "FPS_District": "Dimapur",
      "FPS_Name": "B MAPULA ",
      "FPS_ID": "126800200018",
      "Motorable/Non-Motorable": "Normal",
      "FPS_Lat": "25.91",
      "FPS_Long": "93.71",
      "Allocation_Wheat": 0.0,
      "Allocation_Rice": 80.2,
      "FPS_Tehsil": ""
    },
    {
      "State Name": "",
      "FPS_District": "Dimapur",
      "FPS_Name": "MERANG JAMIR",
      "FPS_ID": "126800200019",
      "Motorable/Non-Motorable": "Normal",
      "FPS_Lat": "25.91",
      "FPS_Long": "93.71",
      "Allocation_Wheat": 0.0,
      "Allocation_Rice": 115.6,
      "FPS_Tehsil": ""
    },
    {
      "State Name": "",
      "FPS_District": "Dimapur",
      "FPS_Name": "ms APHUTO SWU",
      "FPS_ID": "126800200020",
      "Motorable/Non-Motorable": "Normal",
      "FPS_Lat": "25.91",
      "FPS_Long": "93.72",
      "Allocation_Wheat": 0.0,
      "Allocation_Rice": 59.7,
      "FPS_Tehsil": ""
    },
    {
      "State Name": "",
      "FPS_District": "Dimapur",
      "FPS_Name": "NOKIN",
      "FPS_ID": "126800200021",
      "Motorable/Non-Motorable": "Normal",
      "FPS_Lat": "25.9",
      "FPS_Long": "93.69",
      "Allocation_Wheat": 0.0,
      "Allocation_Rice": 63.5,
      "FPS_Tehsil": ""
    },
    {
      "State Name": "",
      "FPS_District": "Dimapur",
      "FPS_Name": "SARA ",
      "FPS_ID": "126800200022",
      "Motorable/Non-Motorable": "Normal",
      "FPS_Lat": "25.91",
      "FPS_Long": "93.72",
      "Allocation_Wheat": 0.0,
      "Allocation_Rice": 91.55,
      "FPS_Tehsil": ""
    },
    {
      "State Name": "",
      "FPS_District": "Dimapur",
      "FPS_Name": "EZANBEMO YANTHAN",
      "FPS_ID": "126800200023",
      "Motorable/Non-Motorable": "Normal",
      "FPS_Lat": "25.9",
      "FPS_Long": "93.7",
      "Allocation_Wheat": 0.0,
      "Allocation_Rice": 64.05,
      "FPS_Tehsil": ""
    },
    {
      "State Name": "",
      "FPS_District": "Dimapur",
      "FPS_Name": "HEKATO SUMI",
      "FPS_ID": "126800200024",
      "Motorable/Non-Motorable": "Normal",
      "FPS_Lat": "25.91",
      "FPS_Long": "93.72",
      "Allocation_Wheat": 0.0,
      "Allocation_Rice": 29.25,
      "FPS_Tehsil": ""
    },
    {
      "State Name": "",
      "FPS_District": "Dimapur",
      "FPS_Name": "PUKHUOLIE ZUMVU",
      "FPS_ID": "126800200026",
      "Motorable/Non-Motorable": "Normal",
      "FPS_Lat": "25.9",
      "FPS_Long": "93.72",
      "Allocation_Wheat": 0.0,
      "Allocation_Rice": 55.9,
      "FPS_Tehsil": ""
    },
    {
      "State Name": "",
      "FPS_District": "Dimapur",
      "FPS_Name": "JACOB ACHUMIC ",
      "FPS_ID": "126800200027",
      "Motorable/Non-Motorable": "Normal",
      "FPS_Lat": "25.89",
      "FPS_Long": "93.72",
      "Allocation_Wheat": 0.0,
      "Allocation_Rice": 119.05,
      "FPS_Tehsil": ""
    },
    {
      "State Name": "",
      "FPS_District": "Dimapur",
      "FPS_Name": "LOYANG ",
      "FPS_ID": "126800200028",
      "Motorable/Non-Motorable": "Normal",
      "FPS_Lat": "25.89",
      "FPS_Long": "93.71",
      "Allocation_Wheat": 0.0,
      "Allocation_Rice": 68.3,
      "FPS_Tehsil": ""
    },
    {
      "State Name": "",
      "FPS_District": "Dimapur",
      "FPS_Name": "MOLU",
      "FPS_ID": "126800200031",
      "Motorable/Non-Motorable": "Normal",
      "FPS_Lat": "25.91",
      "FPS_Long": "93.72",
      "Allocation_Wheat": 0.0,
      "Allocation_Rice": 46.4,
      "FPS_Tehsil": ""
    },
    {
      "State Name": "",
      "FPS_District": "Dimapur",
      "FPS_Name": "I LHOVISHE AWOMI ",
      "FPS_ID": "126800200033",
      "Motorable/Non-Motorable": "Normal",
      "FPS_Lat": "25.91",
      "FPS_Long": "93.7",
      "Allocation_Wheat": 0.0,
      "Allocation_Rice": 65.9,
      "FPS_Tehsil": ""
    },
    {
      "State Name": "",
      "FPS_District": "Dimapur",
      "FPS_Name": "KHETOVI CHOPY",
      "FPS_ID": "126800200034",
      "Motorable/Non-Motorable": "Normal",
      "FPS_Lat": "25.9",
      "FPS_Long": "93.71",
      "Allocation_Wheat": 0.0,
      "Allocation_Rice": 104.05,
      "FPS_Tehsil": ""
    },
    {
      "State Name": "",
      "FPS_District": "Dimapur",
      "FPS_Name": "HINOLI ",
      "FPS_ID": "126800200035",
      "Motorable/Non-Motorable": "Normal",
      "FPS_Lat": "25.89",
      "FPS_Long": "93.73",
      "Allocation_Wheat": 0.0,
      "Allocation_Rice": 170.0,
      "FPS_Tehsil": ""
    },
    {
      "State Name": "",
      "FPS_District": "Dimapur",
      "FPS_Name": "YOYO EDWARD ",
      "FPS_ID": "126800200036",
      "Motorable/Non-Motorable": "Normal",
      "FPS_Lat": "25.9",
      "FPS_Long": "93.73",
      "Allocation_Wheat": 0.0,
      "Allocation_Rice": 157.9,
      "FPS_Tehsil": ""
    },
    {
      "State Name": "",
      "FPS_District": "Dimapur",
      "FPS_Name": "SHIKUTO ",
      "FPS_ID": "126800200037",
      "Motorable/Non-Motorable": "Normal",
      "FPS_Lat": "25.91",
      "FPS_Long": "93.71",
      "Allocation_Wheat": 0.0,
      "Allocation_Rice": 70.85,
      "FPS_Tehsil": ""
    },
    {
      "State Name": "",
      "FPS_District": "Dimapur",
      "FPS_Name": "GHOSHIYI",
      "FPS_ID": "126800200038",
      "Motorable/Non-Motorable": "Normal",
      "FPS_Lat": "25.9",
      "FPS_Long": "93.73",
      "Allocation_Wheat": 0.0,
      "Allocation_Rice": 99.15,
      "FPS_Tehsil": ""
    },
    {
      "State Name": "",
      "FPS_District": "Dimapur",
      "FPS_Name": "HUKALI SEMA",
      "FPS_ID": "126800200039",
      "Motorable/Non-Motorable": "Normal",
      "FPS_Lat": "25.91",
      "FPS_Long": "93.72",
      "Allocation_Wheat": 0.0,
      "Allocation_Rice": 127.7,
      "FPS_Tehsil": ""
    },
    {
      "State Name": "",
      "FPS_District": "Dimapur",
      "FPS_Name": "LONGPAI KONYAK",
      "FPS_ID": "126800200040",
      "Motorable/Non-Motorable": "Normal",
      "FPS_Lat": "25.91",
      "FPS_Long": "93.7",
      "Allocation_Wheat": 0.0,
      "Allocation_Rice": 82.55,
      "FPS_Tehsil": ""
    },
    {
      "State Name": "",
      "FPS_District": "Dimapur",
      "FPS_Name": "RLY CO.OP.SOCIETY",
      "FPS_ID": "126800200041",
      "Motorable/Non-Motorable": "Normal",
      "FPS_Lat": "25.9",
      "FPS_Long": "93.72",
      "Allocation_Wheat": 0.0,
      "Allocation_Rice": 108.9,
      "FPS_Tehsil": ""
    },
    {
      "State Name": "",
      "FPS_District": "Dimapur",
      "FPS_Name": "SHIHOVI SUMI",
      "FPS_ID": "126800200044",
      "Motorable/Non-Motorable": "Normal",
      "FPS_Lat": "25.9",
      "FPS_Long": "93.72",
      "Allocation_Wheat": 0.0,
      "Allocation_Rice": 89.4,
      "FPS_Tehsil": ""
    },
    {
      "State Name": "",
      "FPS_District": "Dimapur",
      "FPS_Name": "H TOSUHO TUCCUC",
      "FPS_ID": "126800200047",
      "Motorable/Non-Motorable": "Normal",
      "FPS_Lat": "25.9",
      "FPS_Long": "93.72",
      "Allocation_Wheat": 0.0,
      "Allocation_Rice": 112.4,
      "FPS_Tehsil": ""
    },
    {
      "State Name": "",
      "FPS_District": "Dimapur",
      "FPS_Name": "AYANGLA",
      "FPS_ID": "126800200048",
      "Motorable/Non-Motorable": "Normal",
      "FPS_Lat": "25.9",
      "FPS_Long": "93.69",
      "Allocation_Wheat": 0.0,
      "Allocation_Rice": 50.9,
      "FPS_Tehsil": ""
    },
    {
      "State Name": "",
      "FPS_District": "Dimapur",
      "FPS_Name": "TALI",
      "FPS_ID": "126800200049",
      "Motorable/Non-Motorable": "Normal",
      "FPS_Lat": "25.9",
      "FPS_Long": "93.71",
      "Allocation_Wheat": 0.0,
      "Allocation_Rice": 79.9,
      "FPS_Tehsil": ""
    },
    {
      "State Name": "",
      "FPS_District": "Dimapur",
      "FPS_Name": "KACHARIGAON (PHEVIMA)",
      "FPS_ID": "126800200051",
      "Motorable/Non-Motorable": "Normal",
      "FPS_Lat": "25.89",
      "FPS_Long": "93.69",
      "Allocation_Wheat": 0.0,
      "Allocation_Rice": 69.9,
      "FPS_Tehsil": ""
    },
    {
      "State Name": "",
      "FPS_District": "Dimapur",
      "FPS_Name": "KASHIRAM VILLAGE ",
      "FPS_ID": "126800200052",
      "Motorable/Non-Motorable": "Normal",
      "FPS_Lat": "25.89",
      "FPS_Long": "93.7",
      "Allocation_Wheat": 0.0,
      "Allocation_Rice": 69.15,
      "FPS_Tehsil": ""
    },
    {
      "State Name": "",
      "FPS_District": "Dimapur",
      "FPS_Name": "kashiram ao village",
      "FPS_ID": "126800200053",
      "Motorable/Non-Motorable": "Normal",
      "FPS_Lat": "25.897863",
      "FPS_Long": "93.688625",
      "Allocation_Wheat": 0.0,
      "Allocation_Rice": 83.9,
      "FPS_Tehsil": ""
    },
    {
      "State Name": "",
      "FPS_District": "Dimapur",
      "FPS_Name": "KUDA (CT) ",
      "FPS_ID": "126800200054",
      "Motorable/Non-Motorable": "Normal",
      "FPS_Lat": "25.89",
      "FPS_Long": "93.73",
      "Allocation_Wheat": 0.0,
      "Allocation_Rice": 242.05,
      "FPS_Tehsil": ""
    },
    {
      "State Name": "",
      "FPS_District": "Dimapur",
      "FPS_Name": "SENJUM VILLAGE ",
      "FPS_ID": "126800200056",
      "Motorable/Non-Motorable": "Normal",
      "FPS_Lat": "25.89",
      "FPS_Long": "93.69",
      "Allocation_Wheat": 0.0,
      "Allocation_Rice": 49.3,
      "FPS_Tehsil": ""
    },
    {
      "State Name": "",
      "FPS_District": "Dimapur",
      "FPS_Name": "SIGNAL ANGAMI VILLAGE",
      "FPS_ID": "126800200057",
      "Motorable/Non-Motorable": "Normal",
      "FPS_Lat": "25.89",
      "FPS_Long": "93.71",
      "Allocation_Wheat": 0.0,
      "Allocation_Rice": 145.75,
      "FPS_Tehsil": ""
    },
    {
      "State Name": "",
      "FPS_District": "Dimapur",
      "FPS_Name": "THAHEKHU VILLAGE",
      "FPS_ID": "126800200058",
      "Motorable/Non-Motorable": "Normal",
      "FPS_Lat": "25.87",
      "FPS_Long": "93.72",
      "Allocation_Wheat": 0.0,
      "Allocation_Rice": 161.45,
      "FPS_Tehsil": ""
    },
    {
      "State Name": "",
      "FPS_District": "Dimapur",
      "FPS_Name": "AOYIMKUM VILLAGE ",
      "FPS_ID": "126800200059",
      "Motorable/Non-Motorable": "Normal",
      "FPS_Lat": "25.9",
      "FPS_Long": "93.7",
      "Allocation_Wheat": 0.0,
      "Allocation_Rice": 72.9,
      "FPS_Tehsil": ""
    },
    {
      "State Name": "",
      "FPS_District": "Dimapur",
      "FPS_Name": "L C PHOM",
      "FPS_ID": "126800200060",
      "Motorable/Non-Motorable": "Normal",
      "FPS_Lat": "25.91",
      "FPS_Long": "93.7",
      "Allocation_Wheat": 0.0,
      "Allocation_Rice": 111.35,
      "FPS_Tehsil": ""
    },
    {
      "State Name": "",
      "FPS_District": "Dimapur",
      "FPS_Name": "ROCKY NGULLIE",
      "FPS_ID": "126800200062",
      "Motorable/Non-Motorable": "Normal",
      "FPS_Lat": "25.9",
      "FPS_Long": "93.7",
      "Allocation_Wheat": 0.0,
      "Allocation_Rice": 61.9,
      "FPS_Tehsil": ""
    },
    {
      "State Name": "",
      "FPS_District": "Dimapur",
      "FPS_Name": "SUNUP",
      "FPS_ID": "126800200063",
      "Motorable/Non-Motorable": "Normal",
      "FPS_Lat": "25.9",
      "FPS_Long": "93.73",
      "Allocation_Wheat": 0.0,
      "Allocation_Rice": 65.6,
      "FPS_Tehsil": ""
    },
    {
      "State Name": "",
      "FPS_District": "Dimapur",
      "FPS_Name": "KHEKISHE AYE ",
      "FPS_ID": "126800200064",
      "Motorable/Non-Motorable": "Normal",
      "FPS_Lat": "25.9",
      "FPS_Long": "93.72",
      "Allocation_Wheat": 0.0,
      "Allocation_Rice": 83.6,
      "FPS_Tehsil": ""
    },
    {
      "State Name": "",
      "FPS_District": "Dimapur",
      "FPS_Name": "ASONG",
      "FPS_ID": "126800200065",
      "Motorable/Non-Motorable": "Normal",
      "FPS_Lat": "25.89",
      "FPS_Long": "93.74",
      "Allocation_Wheat": 0.0,
      "Allocation_Rice": 120.25,
      "FPS_Tehsil": ""
    },
    {
      "State Name": "",
      "FPS_District": "Dimapur",
      "FPS_Name": "JUNGSHI",
      "FPS_ID": "126800200066",
      "Motorable/Non-Motorable": "Normal",
      "FPS_Lat": "25.91",
      "FPS_Long": "93.72",
      "Allocation_Wheat": 0.0,
      "Allocation_Rice": 51.05,
      "FPS_Tehsil": ""
    },
    {
      "State Name": "",
      "FPS_District": "Dimapur",
      "FPS_Name": "MS HELINA",
      "FPS_ID": "126800200067",
      "Motorable/Non-Motorable": "Normal",
      "FPS_Lat": "25.9",
      "FPS_Long": "93.73",
      "Allocation_Wheat": 0.0,
      "Allocation_Rice": 81.7,
      "FPS_Tehsil": ""
    },
    {
      "State Name": "",
      "FPS_District": "Dimapur",
      "FPS_Name": "KEMP",
      "FPS_ID": "126800200068",
      "Motorable/Non-Motorable": "Normal",
      "FPS_Lat": "25.91",
      "FPS_Long": "93.73",
      "Allocation_Wheat": 0.0,
      "Allocation_Rice": 54.8,
      "FPS_Tehsil": ""
    },
    {
      "State Name": "",
      "FPS_District": "Dimapur",
      "FPS_Name": "HOTOSHe ",
      "FPS_ID": "126800200069",
      "Motorable/Non-Motorable": "Normal",
      "FPS_Lat": "25.89",
      "FPS_Long": "93.72",
      "Allocation_Wheat": 0.0,
      "Allocation_Rice": 66.9,
      "FPS_Tehsil": ""
    },
    {
      "State Name": "",
      "FPS_District": "Dimapur",
      "FPS_Name": "MS ZHIMOMI",
      "FPS_ID": "126800200070",
      "Motorable/Non-Motorable": "Normal",
      "FPS_Lat": "25.9",
      "FPS_Long": "93.7",
      "Allocation_Wheat": 0.0,
      "Allocation_Rice": 60.75,
      "FPS_Tehsil": ""
    },
    {
      "State Name": "",
      "FPS_District": "Dimapur",
      "FPS_Name": "ADANG",
      "FPS_ID": "126800200071",
      "Motorable/Non-Motorable": "Normal",
      "FPS_Lat": "25.9",
      "FPS_Long": "93.72",
      "Allocation_Wheat": 0.0,
      "Allocation_Rice": 49.2,
      "FPS_Tehsil": ""
    },
    {
      "State Name": "",
      "FPS_District": "Dimapur",
      "FPS_Name": "MS IMLILEMBA AO ",
      "FPS_ID": "126800200072",
      "Motorable/Non-Motorable": "Normal",
      "FPS_Lat": "25.91",
      "FPS_Long": "93.71",
      "Allocation_Wheat": 0.0,
      "Allocation_Rice": 83.75,
      "FPS_Tehsil": ""
    },
    {
      "State Name": "",
      "FPS_District": "Dimapur",
      "FPS_Name": "KERIE PFUKHA ",
      "FPS_ID": "126800200073",
      "Motorable/Non-Motorable": "Normal",
      "FPS_Lat": "25.89",
      "FPS_Long": "93.7",
      "Allocation_Wheat": 0.0,
      "Allocation_Rice": 41.95,
      "FPS_Tehsil": ""
    },
    {
      "State Name": "",
      "FPS_District": "Dimapur",
      "FPS_Name": "MS VEYITO",
      "FPS_ID": "126800200074",
      "Motorable/Non-Motorable": "Normal",
      "FPS_Lat": "25.91",
      "FPS_Long": "93.71",
      "Allocation_Wheat": 0.0,
      "Allocation_Rice": 68.7,
      "FPS_Tehsil": ""
    },
    {
      "State Name": "",
      "FPS_District": "Dimapur",
      "FPS_Name": "TOSHI AIER",
      "FPS_ID": "126800200075",
      "Motorable/Non-Motorable": "Normal",
      "FPS_Lat": "25.92",
      "FPS_Long": "93.73",
      "Allocation_Wheat": 0.0,
      "Allocation_Rice": 150.85,
      "FPS_Tehsil": ""
    },
    {
      "State Name": "",
      "FPS_District": "Dimapur",
      "FPS_Name": "ALEMTULA",
      "FPS_ID": "126800200076",
      "Motorable/Non-Motorable": "Normal",
      "FPS_Lat": "25.9",
      "FPS_Long": "93.69",
      "Allocation_Wheat": 0.0,
      "Allocation_Rice": 189.8,
      "FPS_Tehsil": ""
    },
    {
      "State Name": "",
      "FPS_District": "Dimapur",
      "FPS_Name": "KEZHA ",
      "FPS_ID": "126800200077",
      "Motorable/Non-Motorable": "Normal",
      "FPS_Lat": "25.89",
      "FPS_Long": "93.72",
      "Allocation_Wheat": 0.0,
      "Allocation_Rice": 59.35,
      "FPS_Tehsil": ""
    },
    {
      "State Name": "",
      "FPS_District": "Dimapur",
      "FPS_Name": "MS VEPRA NYEKA",
      "FPS_ID": "126800200078",
      "Motorable/Non-Motorable": "Normal",
      "FPS_Lat": "25.91",
      "FPS_Long": "93.72",
      "Allocation_Wheat": 0.0,
      "Allocation_Rice": 35.6,
      "FPS_Tehsil": ""
    },
    {
      "State Name": "",
      "FPS_District": "Dimapur",
      "FPS_Name": "HOLUTO",
      "FPS_ID": "126800200079",
      "Motorable/Non-Motorable": "Normal",
      "FPS_Lat": "25.9",
      "FPS_Long": "93.72",
      "Allocation_Wheat": 0.0,
      "Allocation_Rice": 95.75,
      "FPS_Tehsil": ""
    },
    {
      "State Name": "",
      "FPS_District": "Dimapur",
      "FPS_Name": "H SEMA",
      "FPS_ID": "126800200080",
      "Motorable/Non-Motorable": "Normal",
      "FPS_Lat": "25.91",
      "FPS_Long": "93.73",
      "Allocation_Wheat": 0.0,
      "Allocation_Rice": 71.15,
      "FPS_Tehsil": ""
    },
    {
      "State Name": "",
      "FPS_District": "Dimapur",
      "FPS_Name": "RILAN VILLAGE COUNCIL",
      "FPS_ID": "126800200081",
      "Motorable/Non-Motorable": "Normal",
      "FPS_Lat": "25.900834",
      "FPS_Long": "93.683077",
      "Allocation_Wheat": 0.0,
      "Allocation_Rice": 29.9,
      "FPS_Tehsil": ""
    },
    {
      "State Name": "",
      "FPS_District": "Dimapur",
      "FPS_Name": "ALONG LONGKUMEr ",
      "FPS_ID": "126800200082",
      "Motorable/Non-Motorable": "Normal",
      "FPS_Lat": "25.92",
      "FPS_Long": "93.73",
      "Allocation_Wheat": 0.0,
      "Allocation_Rice": 75.25,
      "FPS_Tehsil": ""
    },
    {
      "State Name": "",
      "FPS_District": "Dimapur",
      "FPS_Name": "HETOKA",
      "FPS_ID": "126800200083",
      "Motorable/Non-Motorable": "Normal",
      "FPS_Lat": "25.9",
      "FPS_Long": "93.71",
      "Allocation_Wheat": 0.0,
      "Allocation_Rice": 30.05,
      "FPS_Tehsil": ""
    },
    {
      "State Name": "",
      "FPS_District": "Dimapur",
      "FPS_Name": "MS CHAK MPS",
      "FPS_ID": "126800200084",
      "Motorable/Non-Motorable": "Normal",
      "FPS_Lat": "25.91",
      "FPS_Long": "93.73",
      "Allocation_Wheat": 0.0,
      "Allocation_Rice": 77.7,
      "FPS_Tehsil": ""
    },
    {
      "State Name": "",
      "FPS_District": "Dimapur",
      "FPS_Name": "INDUSTRIAL VILLAGE \nRAZHUPHE",
      "FPS_ID": "126800220002",
      "Motorable/Non-Motorable": "Normal",
      "FPS_Lat": "25.9",
      "FPS_Long": "93.69",
      "Allocation_Wheat": 0.0,
      "Allocation_Rice": 80.5,
      "FPS_Tehsil": ""
    },
    {
      "State Name": "",
      "FPS_District": "Dimapur",
      "FPS_Name": "IMKONG",
      "FPS_ID": "126800220003",
      "Motorable/Non-Motorable": "Normal",
      "FPS_Lat": "25.9",
      "FPS_Long": "93.69",
      "Allocation_Wheat": 0.0,
      "Allocation_Rice": 51.85,
      "FPS_Tehsil": ""
    },
    {
      "State Name": "",
      "FPS_District": "Dimapur",
      "FPS_Name": "THAHEKHU VILLAGE \nBLOCK-7 ",
      "FPS_ID": "126800220004",
      "Motorable/Non-Motorable": "Normal",
      "FPS_Lat": "25.86",
      "FPS_Long": "93.71",
      "Allocation_Wheat": 0.0,
      "Allocation_Rice": 89.35,
      "FPS_Tehsil": ""
    },
    {
      "State Name": "",
      "FPS_District": "Dimapur",
      "FPS_Name": "SIGNAL ANGAMI-B",
      "FPS_ID": "126800220005",
      "Motorable/Non-Motorable": "Normal",
      "FPS_Lat": "25.89",
      "FPS_Long": "93.7",
      "Allocation_Wheat": 0.0,
      "Allocation_Rice": 118.85,
      "FPS_Tehsil": ""
    },
    {
      "State Name": "",
      "FPS_District": "Dimapur",
      "FPS_Name": "OBETO KINIMI ",
      "FPS_ID": "126800220006",
      "Motorable/Non-Motorable": "Normal",
      "FPS_Lat": "25.89",
      "FPS_Long": "93.71",
      "Allocation_Wheat": 0.0,
      "Allocation_Rice": 58.85,
      "FPS_Tehsil": ""
    },
    {
      "State Name": "",
      "FPS_District": "Dimapur",
      "FPS_Name": "M.S Z.ZAKIESATO",
      "FPS_ID": "126800220007",
      "Motorable/Non-Motorable": "Normal",
      "FPS_Lat": "25.91",
      "FPS_Long": "93.72",
      "Allocation_Wheat": 0.0,
      "Allocation_Rice": 46.95,
      "FPS_Tehsil": ""
    },
    {
      "State Name": "",
      "FPS_District": "Dimapur",
      "FPS_Name": "M.S KITOSHE N ACHUMI ",
      "FPS_ID": "126800220008",
      "Motorable/Non-Motorable": "Normal",
      "FPS_Lat": "25.9",
      "FPS_Long": "93.71",
      "Allocation_Wheat": 0.0,
      "Allocation_Rice": 46.4,
      "FPS_Tehsil": ""
    },
    {
      "State Name": "",
      "FPS_District": "Dimapur",
      "FPS_Name": "M.S B HEANG PHOM",
      "FPS_ID": "126800220009",
      "Motorable/Non-Motorable": "Normal",
      "FPS_Lat": "25.91",
      "FPS_Long": "93.74",
      "Allocation_Wheat": 0.0,
      "Allocation_Rice": 42.35,
      "FPS_Tehsil": ""
    },
    {
      "State Name": "",
      "FPS_District": "Dimapur",
      "FPS_Name": "M.S DOYEL SWU",
      "FPS_ID": "126800220010",
      "Motorable/Non-Motorable": "Normal",
      "FPS_Lat": "25.88",
      "FPS_Long": "93.74",
      "Allocation_Wheat": 0.0,
      "Allocation_Rice": 23.35,
      "FPS_Tehsil": ""
    },
    {
      "State Name": "",
      "FPS_District": "Dimapur",
      "FPS_Name": "M.S TEMSUYANGER ",
      "FPS_ID": "126800220011",
      "Motorable/Non-Motorable": "Normal",
      "FPS_Lat": "25.91",
      "FPS_Long": "93.71",
      "Allocation_Wheat": 0.0,
      "Allocation_Rice": 38.3,
      "FPS_Tehsil": ""
    },
    {
      "State Name": "",
      "FPS_District": "Dimapur",
      "FPS_Name": "M.S V YEPTHOMI",
      "FPS_ID": "126800220012",
      "Motorable/Non-Motorable": "Normal",
      "FPS_Lat": "25.92",
      "FPS_Long": "93.74",
      "Allocation_Wheat": 0.0,
      "Allocation_Rice": 23.85,
      "FPS_Tehsil": ""
    },
    {
      "State Name": "",
      "FPS_District": "Dimapur",
      "FPS_Name": "M.S AZEUZIE YANTHAN ",
      "FPS_ID": "126800220014",
      "Motorable/Non-Motorable": "Normal",
      "FPS_Lat": "25.901606",
      "FPS_Long": "93.705819",
      "Allocation_Wheat": 0.0,
      "Allocation_Rice": 58.75,
      "FPS_Tehsil": ""
    },
    {
      "State Name": "",
      "FPS_District": "Dimapur",
      "FPS_Name": "M.S K. ANITO CHISHI ",
      "FPS_ID": "126800220015",
      "Motorable/Non-Motorable": "Normal",
      "FPS_Lat": "25.9",
      "FPS_Long": "93.71",
      "Allocation_Wheat": 0.0,
      "Allocation_Rice": 20.2,
      "FPS_Tehsil": ""
    },
    {
      "State Name": "",
      "FPS_District": "Dimapur",
      "FPS_Name": "M.S INOTO",
      "FPS_ID": "126800220016",
      "Motorable/Non-Motorable": "Normal",
      "FPS_Lat": "25.89",
      "FPS_Long": "93.72",
      "Allocation_Wheat": 0.0,
      "Allocation_Rice": 47.0,
      "FPS_Tehsil": ""
    },
    {
      "State Name": "",
      "FPS_District": "Dimapur",
      "FPS_Name": "M.S KIVI",
      "FPS_ID": "126800220018",
      "Motorable/Non-Motorable": "Normal",
      "FPS_Lat": "25.89",
      "FPS_Long": "93.73",
      "Allocation_Wheat": 0.0,
      "Allocation_Rice": 32.55,
      "FPS_Tehsil": ""
    },
    {
      "State Name": "",
      "FPS_District": "Peren",
      "FPS_Name": "M.S NUNGSHIRENLA  AIER ",
      "FPS_ID": "126800220019",
      "Motorable/Non-Motorable": "Normal",
      "FPS_Lat": "25.55",
      "FPS_Long": "93.43",
      "Allocation_Wheat": 0.0,
      "Allocation_Rice": 89.6,
      "FPS_Tehsil": ""
    },
    {
      "State Name": "",
      "FPS_District": "Dimapur",
      "FPS_Name": "M.S LEMTILA ANAR ",
      "FPS_ID": "126800220020",
      "Motorable/Non-Motorable": "Normal",
      "FPS_Lat": "25.91",
      "FPS_Long": "93.7",
      "Allocation_Wheat": 0.0,
      "Allocation_Rice": 143.15,
      "FPS_Tehsil": ""
    },
    {
      "State Name": "",
      "FPS_District": "Dimapur",
      "FPS_Name": "M.S SAMUEL PONGEN",
      "FPS_ID": "126800220021",
      "Motorable/Non-Motorable": "Normal",
      "FPS_Lat": "25.9053",
      "FPS_Long": "93.688208",
      "Allocation_Wheat": 0.0,
      "Allocation_Rice": 38.3,
      "FPS_Tehsil": ""
    },
    {
      "State Name": "",
      "FPS_District": "Dimapur",
      "FPS_Name": "M.S KHEVISHE ACHUMI ",
      "FPS_ID": "126800220022",
      "Motorable/Non-Motorable": "Normal",
      "FPS_Lat": "25.9",
      "FPS_Long": "93.7",
      "Allocation_Wheat": 0.0,
      "Allocation_Rice": 27.75,
      "FPS_Tehsil": ""
    },
    {
      "State Name": "",
      "FPS_District": "Dimapur",
      "FPS_Name": "M.S ROSE PHOM",
      "FPS_ID": "126800220023",
      "Motorable/Non-Motorable": "Normal",
      "FPS_Lat": "25.92",
      "FPS_Long": "93.74",
      "Allocation_Wheat": 0.0,
      "Allocation_Rice": 65.5,
      "FPS_Tehsil": ""
    },
    {
      "State Name": "",
      "FPS_District": "Dimapur",
      "FPS_Name": "M.S SAM AWOMI ",
      "FPS_ID": "126800220024",
      "Motorable/Non-Motorable": "Normal",
      "FPS_Lat": "25.9",
      "FPS_Long": "93.71",
      "Allocation_Wheat": 0.0,
      "Allocation_Rice": 64.05,
      "FPS_Tehsil": ""
    },
    {
      "State Name": "",
      "FPS_District": "Dimapur",
      "FPS_Name": "M.S LOVITO ZHIMOMI ",
      "FPS_ID": "126800220025",
      "Motorable/Non-Motorable": "Normal",
      "FPS_Lat": "25.89",
      "FPS_Long": "93.71",
      "Allocation_Wheat": 0.0,
      "Allocation_Rice": 33.55,
      "FPS_Tehsil": ""
    },
    {
      "State Name": "",
      "FPS_District": "Dimapur",
      "FPS_Name": "M.S TOSHILEMBA AO ",
      "FPS_ID": "126800220026",
      "Motorable/Non-Motorable": "Normal",
      "FPS_Lat": "25.89",
      "FPS_Long": "93.71",
      "Allocation_Wheat": 0.0,
      "Allocation_Rice": 37.3,
      "FPS_Tehsil": ""
    },
    {
      "State Name": "",
      "FPS_District": "Dimapur",
      "FPS_Name": "M.S IKUSA",
      "FPS_ID": "126800220027",
      "Motorable/Non-Motorable": "Normal",
      "FPS_Lat": "25.85",
      "FPS_Long": "93.71",
      "Allocation_Wheat": 0.0,
      "Allocation_Rice": 15.3,
      "FPS_Tehsil": ""
    },
    {
      "State Name": "",
      "FPS_District": "Dimapur",
      "FPS_Name": "M.S TONOSHE",
      "FPS_ID": "126800220028",
      "Motorable/Non-Motorable": "Normal",
      "FPS_Lat": "25.91",
      "FPS_Long": "93.74",
      "Allocation_Wheat": 0.0,
      "Allocation_Rice": 59.75,
      "FPS_Tehsil": ""
    },
    {
      "State Name": "",
      "FPS_District": "Dimapur",
      "FPS_Name": "M.S DAVID KHUVUNG ",
      "FPS_ID": "126800220029",
      "Motorable/Non-Motorable": "Normal",
      "FPS_Lat": "25.91",
      "FPS_Long": "93.71",
      "Allocation_Wheat": 0.0,
      "Allocation_Rice": 19.0,
      "FPS_Tehsil": ""
    },
    {
      "State Name": "",
      "FPS_District": "Dimapur",
      "FPS_Name": "M.S KUGHAVI AYE",
      "FPS_ID": "126800220030",
      "Motorable/Non-Motorable": "Normal",
      "FPS_Lat": "25.89",
      "FPS_Long": "93.72",
      "Allocation_Wheat": 0.0,
      "Allocation_Rice": 2.4,
      "FPS_Tehsil": ""
    },
    {
      "State Name": "",
      "FPS_District": "Dimapur",
      "FPS_Name": "M.S A HETOLI SUMI",
      "FPS_ID": "126800220031",
      "Motorable/Non-Motorable": "Normal",
      "FPS_Lat": "25.91",
      "FPS_Long": "93.71",
      "Allocation_Wheat": 0.0,
      "Allocation_Rice": 14.6,
      "FPS_Tehsil": ""
    },
    {
      "State Name": "",
      "FPS_District": "Dimapur",
      "FPS_Name": "M.S T.SUMI ",
      "FPS_ID": "126800220032",
      "Motorable/Non-Motorable": "Normal",
      "FPS_Lat": "25.9",
      "FPS_Long": "93.72",
      "Allocation_Wheat": 0.0,
      "Allocation_Rice": 69.0,
      "FPS_Tehsil": ""
    },
    {
      "State Name": "",
      "FPS_District": "Dimapur",
      "FPS_Name": "M.S LEO",
      "FPS_ID": "126800220033",
      "Motorable/Non-Motorable": "Normal",
      "FPS_Lat": "25.91",
      "FPS_Long": "93.7",
      "Allocation_Wheat": 0.0,
      "Allocation_Rice": 86.45,
      "FPS_Tehsil": ""
    },
    {
      "State Name": "",
      "FPS_District": "Dimapur",
      "FPS_Name": "M.S V.METHA ",
      "FPS_ID": "126800220034",
      "Motorable/Non-Motorable": "Normal",
      "FPS_Lat": "25.9",
      "FPS_Long": "93.71",
      "Allocation_Wheat": 0.0,
      "Allocation_Rice": 10.45,
      "FPS_Tehsil": ""
    },
    {
      "State Name": "",
      "FPS_District": "Dimapur",
      "FPS_Name": "m.s sede",
      "FPS_ID": "126800220035",
      "Motorable/Non-Motorable": "Normal",
      "FPS_Lat": "25.9",
      "FPS_Long": "93.71",
      "Allocation_Wheat": 0.0,
      "Allocation_Rice": 1.7,
      "FPS_Tehsil": ""
    },
    {
      "State Name": "",
      "FPS_District": "Dimapur",
      "FPS_Name": "M.S NEWTON ",
      "FPS_ID": "126800220036",
      "Motorable/Non-Motorable": "Normal",
      "FPS_Lat": "25.9",
      "FPS_Long": "93.71",
      "Allocation_Wheat": 0.0,
      "Allocation_Rice": 49.35,
      "FPS_Tehsil": ""
    },
    {
      "State Name": "",
      "FPS_District": "Dimapur",
      "FPS_Name": "M.S NIBO",
      "FPS_ID": "126800220037",
      "Motorable/Non-Motorable": "Normal",
      "FPS_Lat": "25.88",
      "FPS_Long": "93.72",
      "Allocation_Wheat": 0.0,
      "Allocation_Rice": 20.65,
      "FPS_Tehsil": ""
    },
    {
      "State Name": "",
      "FPS_District": "Dimapur",
      "FPS_Name": "M.S I S SHIKHU ",
      "FPS_ID": "126800220038",
      "Motorable/Non-Motorable": "Normal",
      "FPS_Lat": "25.92",
      "FPS_Long": "93.72",
      "Allocation_Wheat": 0.0,
      "Allocation_Rice": 10.95,
      "FPS_Tehsil": ""
    },
    {
      "State Name": "",
      "FPS_District": "Dimapur",
      "FPS_Name": "M.S MOASANGLA AO ",
      "FPS_ID": "126800220039",
      "Motorable/Non-Motorable": "Normal",
      "FPS_Lat": "25.9",
      "FPS_Long": "93.7",
      "Allocation_Wheat": 0.0,
      "Allocation_Rice": 6.75,
      "FPS_Tehsil": ""
    },
    {
      "State Name": "",
      "FPS_District": "Dimapur",
      "FPS_Name": "M.S KUDA II VILLAGE",
      "FPS_ID": "126800220040",
      "Motorable/Non-Motorable": "Normal",
      "FPS_Lat": "25.89",
      "FPS_Long": "93.73",
      "Allocation_Wheat": 0.0,
      "Allocation_Rice": 170.2,
      "FPS_Tehsil": ""
    },
    {
      "State Name": "",
      "FPS_District": "Dimapur",
      "FPS_Name": "PHAIPIJANG V C",
      "FPS_ID": "126800220041",
      "Motorable/Non-Motorable": "Normal",
      "FPS_Lat": "25.88",
      "FPS_Long": "93.74",
      "Allocation_Wheat": 0.0,
      "Allocation_Rice": 54.6,
      "FPS_Tehsil": ""
    },
    {
      "State Name": "",
      "FPS_District": "Dimapur",
      "FPS_Name": "M.S IMTIAKUM IMSONG ",
      "FPS_ID": "126800220042",
      "Motorable/Non-Motorable": "Normal",
      "FPS_Lat": "25.91",
      "FPS_Long": "93.72",
      "Allocation_Wheat": 0.0,
      "Allocation_Rice": 12.45,
      "FPS_Tehsil": ""
    },
    {
      "State Name": "",
      "FPS_District": "Dimapur",
      "FPS_Name": "M.S M V ZHIMO",
      "FPS_ID": "126800220043",
      "Motorable/Non-Motorable": "Normal",
      "FPS_Lat": "25.9",
      "FPS_Long": "93.74",
      "Allocation_Wheat": 0.0,
      "Allocation_Rice": 94.15,
      "FPS_Tehsil": ""
    },
    {
      "State Name": "",
      "FPS_District": "Dimapur",
      "FPS_Name": "M.S MERANGSOBA ",
      "FPS_ID": "126800220044",
      "Motorable/Non-Motorable": "Normal",
      "FPS_Lat": "25.88",
      "FPS_Long": "93.73",
      "Allocation_Wheat": 0.0,
      "Allocation_Rice": 1.55,
      "FPS_Tehsil": ""
    },
    {
      "State Name": "",
      "FPS_District": "Dimapur",
      "FPS_Name": "M.S ASANGLA",
      "FPS_ID": "126800220045",
      "Motorable/Non-Motorable": "Normal",
      "FPS_Lat": "25.9",
      "FPS_Long": "93.74",
      "Allocation_Wheat": 0.0,
      "Allocation_Rice": 32.3,
      "FPS_Tehsil": ""
    },
    {
      "State Name": "",
      "FPS_District": "Dimapur",
      "FPS_Name": "M.S JAMES W HUMTSOE",
      "FPS_ID": "126800220046",
      "Motorable/Non-Motorable": "Normal",
      "FPS_Lat": "25.9",
      "FPS_Long": "93.72",
      "Allocation_Wheat": 0.0,
      "Allocation_Rice": 8.05,
      "FPS_Tehsil": ""
    },
    {
      "State Name": "",
      "FPS_District": "Dimapur",
      "FPS_Name": "M.S LIVI ZHIMOMI ",
      "FPS_ID": "126800220047",
      "Motorable/Non-Motorable": "Normal",
      "FPS_Lat": "25.91",
      "FPS_Long": "93.71",
      "Allocation_Wheat": 0.0,
      "Allocation_Rice": 38.25,
      "FPS_Tehsil": ""
    },
    {
      "State Name": "",
      "FPS_District": "Dimapur",
      "FPS_Name": "RANKATHUNG EZUNG",
      "FPS_ID": "126800220048",
      "Motorable/Non-Motorable": "Normal",
      "FPS_Lat": "25.91",
      "FPS_Long": "93.72",
      "Allocation_Wheat": 0.0,
      "Allocation_Rice": 13.5,
      "FPS_Tehsil": ""
    },
    {
      "State Name": "",
      "FPS_District": "Dimapur",
      "FPS_Name": "Mulato Kinimi",
      "FPS_ID": "126800220049",
      "Motorable/Non-Motorable": "Normal",
      "FPS_Lat": "25.9",
      "FPS_Long": "93.71",
      "Allocation_Wheat": 0.0,
      "Allocation_Rice": 7.95,
      "FPS_Tehsil": ""
    },
    {
      "State Name": "",
      "FPS_District": "Dimapur",
      "FPS_Name": "GHONIVI VILLAGE ",
      "FPS_ID": "126800300031",
      "Motorable/Non-Motorable": "Normal",
      "FPS_Lat": "25.9698",
      "FPS_Long": "93.8007",
      "Allocation_Wheat": 0.0,
      "Allocation_Rice": 14.95,
      "FPS_Tehsil": ""
    },
    {
      "State Name": "",
      "FPS_District": "Wokha",
      "FPS_Name": "GHOTOVI VILLAGE COUNCIL ",
      "FPS_ID": "126800300032",
      "Motorable/Non-Motorable": "Normal",
      "FPS_Lat": "25.94",
      "FPS_Long": "94.01",
      "Allocation_Wheat": 0.0,
      "Allocation_Rice": 11.75,
      "FPS_Tehsil": ""
    },
    {
      "State Name": "",
      "FPS_District": "Dimapur",
      "FPS_Name": "hakhizhe village ",
      "FPS_ID": "126800300033",
      "Motorable/Non-Motorable": "Normal",
      "FPS_Lat": "25.9246",
      "FPS_Long": "93.9302",
      "Allocation_Wheat": 0.0,
      "Allocation_Rice": 21.6,
      "FPS_Tehsil": ""
    },
    {
      "State Name": "",
      "FPS_District": "Dimapur",
      "FPS_Name": "hezheto village ",
      "FPS_ID": "126800300034",
      "Motorable/Non-Motorable": "Normal",
      "FPS_Lat": "25.9987",
      "FPS_Long": "93.9035",
      "Allocation_Wheat": 0.0,
      "Allocation_Rice": 9.9,
      "FPS_Tehsil": ""
    },
    {
      "State Name": "",
      "FPS_District": "Dimapur",
      "FPS_Name": "henito village",
      "FPS_ID": "126800300035",
      "Motorable/Non-Motorable": "Normal",
      "FPS_Lat": "25.9847",
      "FPS_Long": "93.9174",
      "Allocation_Wheat": 0.0,
      "Allocation_Rice": 14.9,
      "FPS_Tehsil": ""
    },
    {
      "State Name": "",
      "FPS_District": "Dimapur",
      "FPS_Name": "k. hetoi village",
      "FPS_ID": "126800300036",
      "Motorable/Non-Motorable": "Normal",
      "FPS_Lat": "25.9619",
      "FPS_Long": "93.9168",
      "Allocation_Wheat": 0.0,
      "Allocation_Rice": 23.25,
      "FPS_Tehsil": ""
    },
    {
      "State Name": "",
      "FPS_District": "Dimapur",
      "FPS_Name": "HEVIKHE VILLAGE ",
      "FPS_ID": "126800300037",
      "Motorable/Non-Motorable": "Normal",
      "FPS_Lat": "25.9469",
      "FPS_Long": "93.9021",
      "Allocation_Wheat": 0.0,
      "Allocation_Rice": 12.6,
      "FPS_Tehsil": ""
    },
    {
      "State Name": "",
      "FPS_District": "Dimapur",
      "FPS_Name": "HEVISHE VILLAGE ",
      "FPS_ID": "126800300038",
      "Motorable/Non-Motorable": "Normal",
      "FPS_Lat": "25.97969298",
      "FPS_Long": "93.807193",
      "Allocation_Wheat": 0.0,
      "Allocation_Rice": 16.25,
      "FPS_Tehsil": ""
    },
    {
      "State Name": "",
      "FPS_District": "Dimapur",
      "FPS_Name": "hezulho village ",
      "FPS_ID": "126800300039",
      "Motorable/Non-Motorable": "Normal",
      "FPS_Lat": "25.967064",
      "FPS_Long": "93.95212",
      "Allocation_Wheat": 0.0,
      "Allocation_Rice": 8.7,
      "FPS_Tehsil": ""
    },
    {
      "State Name": "",
      "FPS_District": "Wokha",
      "FPS_Name": "hovishe village ",
      "FPS_ID": "126800300040",
      "Motorable/Non-Motorable": "Normal",
      "FPS_Lat": "25.93",
      "FPS_Long": "93.98",
      "Allocation_Wheat": 0.0,
      "Allocation_Rice": 22.65,
      "FPS_Tehsil": ""
    },
    {
      "State Name": "",
      "FPS_District": "Dimapur",
      "FPS_Name": "HOVUKHU VILLAGE COUNCIL ",
      "FPS_ID": "126800300041",
      "Motorable/Non-Motorable": "Normal",
      "FPS_Lat": "25.977511",
      "FPS_Long": "93.950571",
      "Allocation_Wheat": 0.0,
      "Allocation_Rice": 26.15,
      "FPS_Tehsil": ""
    },
    {
      "State Name": "",
      "FPS_District": "Dimapur",
      "FPS_Name": "KHAGHABOTO VILLAGE ",
      "FPS_ID": "126800300042",
      "Motorable/Non-Motorable": "Normal",
      "FPS_Lat": "25.9787",
      "FPS_Long": "93.8076",
      "Allocation_Wheat": 0.0,
      "Allocation_Rice": 11.8,
      "FPS_Tehsil": ""
    },
    {
      "State Name": "",
      "FPS_District": "Dimapur",
      "FPS_Name": "KIYELHO VILLAGE ",
      "FPS_ID": "126800300043",
      "Motorable/Non-Motorable": "Normal",
      "FPS_Lat": "25.9635",
      "FPS_Long": "93.8347",
      "Allocation_Wheat": 0.0,
      "Allocation_Rice": 8.45,
      "FPS_Tehsil": ""
    },
    {
      "State Name": "",
      "FPS_District": "Dimapur",
      "FPS_Name": "kiyezhu a village ",
      "FPS_ID": "126800300044",
      "Motorable/Non-Motorable": "Normal",
      "FPS_Lat": "25.9661",
      "FPS_Long": "93.8969",
      "Allocation_Wheat": 0.0,
      "Allocation_Rice": 29.25,
      "FPS_Tehsil": ""
    },
    {
      "State Name": "",
      "FPS_District": "Dimapur",
      "FPS_Name": "kiyezu b village ",
      "FPS_ID": "126800300045",
      "Motorable/Non-Motorable": "Normal",
      "FPS_Lat": "25.9855",
      "FPS_Long": "93.8897",
      "Allocation_Wheat": 0.0,
      "Allocation_Rice": 20.85,
      "FPS_Tehsil": ""
    },
    {
      "State Name": "",
      "FPS_District": "Dimapur",
      "FPS_Name": "kuhoxu village ",
      "FPS_ID": "126800300046",
      "Motorable/Non-Motorable": "Normal",
      "FPS_Lat": "25.919838",
      "FPS_Long": "93.974812",
      "Allocation_Wheat": 0.0,
      "Allocation_Rice": 28.35,
      "FPS_Tehsil": ""
    },
    {
      "State Name": "",
      "FPS_District": "Dimapur",
      "FPS_Name": "lukuto village ",
      "FPS_ID": "126800300047",
      "Motorable/Non-Motorable": "Normal",
      "FPS_Lat": "25.9935",
      "FPS_Long": "93.8276",
      "Allocation_Wheat": 0.0,
      "Allocation_Rice": 10.7,
      "FPS_Tehsil": ""
    },
    {
      "State Name": "",
      "FPS_District": "Dimapur",
      "FPS_Name": "KAHOI ",
      "FPS_ID": "126800300048",
      "Motorable/Non-Motorable": "Normal",
      "FPS_Lat": "25.9329",
      "FPS_Long": "93.9647",
      "Allocation_Wheat": 0.0,
      "Allocation_Rice": 85.25,
      "FPS_Tehsil": ""
    },
    {
      "State Name": "",
      "FPS_District": "Dimapur",
      "FPS_Name": "PHUHOTO VILLAGE ",
      "FPS_ID": "126800300049",
      "Motorable/Non-Motorable": "Normal",
      "FPS_Lat": "26.01207101",
      "FPS_Long": "93.79808501",
      "Allocation_Wheat": 0.0,
      "Allocation_Rice": 10.9,
      "FPS_Tehsil": ""
    },
    {
      "State Name": "",
      "FPS_District": "Dimapur",
      "FPS_Name": "pishikhu village ",
      "FPS_ID": "126800300050",
      "Motorable/Non-Motorable": "Normal",
      "FPS_Lat": "25.969336",
      "FPS_Long": "93.79026799",
      "Allocation_Wheat": 0.0,
      "Allocation_Rice": 13.5,
      "FPS_Tehsil": ""
    },
    {
      "State Name": "",
      "FPS_District": "Dimapur",
      "FPS_Name": "sahoi village ",
      "FPS_ID": "126800300051",
      "Motorable/Non-Motorable": "Normal",
      "FPS_Lat": "25.96670302",
      "FPS_Long": "93.83796701",
      "Allocation_Wheat": 0.0,
      "Allocation_Rice": 10.55,
      "FPS_Tehsil": ""
    },
    {
      "State Name": "",
      "FPS_District": "Dimapur",
      "FPS_Name": "shitoi village ",
      "FPS_ID": "126800300052",
      "Motorable/Non-Motorable": "Normal",
      "FPS_Lat": "25.99701503",
      "FPS_Long": "93.80651798",
      "Allocation_Wheat": 0.0,
      "Allocation_Rice": 11.3,
      "FPS_Tehsil": ""
    },
    {
      "State Name": "",
      "FPS_District": "Dimapur",
      "FPS_Name": "sunito village ",
      "FPS_ID": "126800300053",
      "Motorable/Non-Motorable": "Normal",
      "FPS_Lat": "25.971189",
      "FPS_Long": "93.85019602",
      "Allocation_Wheat": 0.0,
      "Allocation_Rice": 8.35,
      "FPS_Tehsil": ""
    },
    {
      "State Name": "",
      "FPS_District": "Dimapur",
      "FPS_Name": "VISHIYI VILLAGE ",
      "FPS_ID": "126800300054",
      "Motorable/Non-Motorable": "Normal",
      "FPS_Lat": "25.997",
      "FPS_Long": "93.8351",
      "Allocation_Wheat": 0.0,
      "Allocation_Rice": 14.2,
      "FPS_Tehsil": ""
    },
    {
      "State Name": "",
      "FPS_District": "Dimapur",
      "FPS_Name": "VIYITO VILLAGE ",
      "FPS_ID": "126800300055",
      "Motorable/Non-Motorable": "Normal",
      "FPS_Lat": "25.94883297",
      "FPS_Long": "93.957123",
      "Allocation_Wheat": 0.0,
      "Allocation_Rice": 14.65,
      "FPS_Tehsil": ""
    },
    {
      "State Name": "",
      "FPS_District": "Dimapur",
      "FPS_Name": "XUKIYE VILLAGE ",
      "FPS_ID": "126800300056",
      "Motorable/Non-Motorable": "Normal",
      "FPS_Lat": "25.95036599",
      "FPS_Long": "93.79317798",
      "Allocation_Wheat": 0.0,
      "Allocation_Rice": 15.15,
      "FPS_Tehsil": ""
    },
    {
      "State Name": "",
      "FPS_District": "Dimapur",
      "FPS_Name": "yehokhu village ",
      "FPS_ID": "126800300057",
      "Motorable/Non-Motorable": "Normal",
      "FPS_Lat": "25.9882",
      "FPS_Long": "93.830613",
      "Allocation_Wheat": 0.0,
      "Allocation_Rice": 7.7,
      "FPS_Tehsil": ""
    },
    {
      "State Name": "",
      "FPS_District": "Dimapur",
      "FPS_Name": "yeveto VIllage ",
      "FPS_ID": "126800300058",
      "Motorable/Non-Motorable": "Normal",
      "FPS_Lat": "25.9335",
      "FPS_Long": "93.9304",
      "Allocation_Wheat": 0.0,
      "Allocation_Rice": 17.1,
      "FPS_Tehsil": ""
    },
    {
      "State Name": "",
      "FPS_District": "Dimapur",
      "FPS_Name": "zuheshe village ",
      "FPS_ID": "126800300059",
      "Motorable/Non-Motorable": "Normal",
      "FPS_Lat": "25.97110501",
      "FPS_Long": "93.93019298",
      "Allocation_Wheat": 0.0,
      "Allocation_Rice": 16.05,
      "FPS_Tehsil": ""
    },
    {
      "State Name": "",
      "FPS_District": "Dimapur",
      "FPS_Name": "zukihe village ",
      "FPS_ID": "126800300060",
      "Motorable/Non-Motorable": "Normal",
      "FPS_Lat": "25.95",
      "FPS_Long": "93.78",
      "Allocation_Wheat": 0.0,
      "Allocation_Rice": 22.55,
      "FPS_Tehsil": ""
    },
    {
      "State Name": "",
      "FPS_District": "Dimapur",
      "FPS_Name": "AKITO VILLAGE ",
      "FPS_ID": "126800300061",
      "Motorable/Non-Motorable": "Normal",
      "FPS_Lat": "26.00337601",
      "FPS_Long": "93.82313002",
      "Allocation_Wheat": 0.0,
      "Allocation_Rice": 3.45,
      "FPS_Tehsil": ""
    },
    {
      "State Name": "",
      "FPS_District": "Kohima",
      "FPS_Name": "ITOVI VILLAGE ",
      "FPS_ID": "126800300062",
      "Motorable/Non-Motorable": "Normal",
      "FPS_Lat": "25.9",
      "FPS_Long": "94",
      "Allocation_Wheat": 0.0,
      "Allocation_Rice": 7.75,
      "FPS_Tehsil": ""
    },
    {
      "State Name": "",
      "FPS_District": "Dimapur",
      "FPS_Name": "S.VIHUTO VILLAGE ",
      "FPS_ID": "126800300063",
      "Motorable/Non-Motorable": "Normal",
      "FPS_Lat": "25.942081",
      "FPS_Long": "93.90387198",
      "Allocation_Wheat": 0.0,
      "Allocation_Rice": 21.2,
      "FPS_Tehsil": ""
    },
    {
      "State Name": "",
      "FPS_District": "Dimapur",
      "FPS_Name": "ANGHJONG(KONYAK) VILLAGE ",
      "FPS_ID": "126800300064",
      "Motorable/Non-Motorable": "Normal",
      "FPS_Lat": "25.84",
      "FPS_Long": "93.87",
      "Allocation_Wheat": 0.0,
      "Allocation_Rice": 14.602,
      "FPS_Tehsil": ""
    },
    {
      "State Name": "",
      "FPS_District": "Dimapur",
      "FPS_Name": "P.VIZHETO TUCCU VILLAGE ",
      "FPS_ID": "126800300066",
      "Motorable/Non-Motorable": "Normal",
      "FPS_Lat": "25.95063697",
      "FPS_Long": "93.91146",
      "Allocation_Wheat": 0.0,
      "Allocation_Rice": 46.95,
      "FPS_Tehsil": ""
    },
    {
      "State Name": "",
      "FPS_District": "Kohima",
      "FPS_Name": "M.S HOKUTO VILLAGE ",
      "FPS_ID": "126800300067",
      "Motorable/Non-Motorable": "Normal",
      "FPS_Lat": "25.908654",
      "FPS_Long": "93.972125",
      "Allocation_Wheat": 0.0,
      "Allocation_Rice": 4.5,
      "FPS_Tehsil": ""
    },
    {
      "State Name": "",
      "FPS_District": "Dimapur",
      "FPS_Name": "NEW CHUMUKEDIMA ",
      "FPS_ID": "126800400002",
      "Motorable/Non-Motorable": "Normal",
      "FPS_Lat": "25.76",
      "FPS_Long": "93.83",
      "Allocation_Wheat": 0.0,
      "Allocation_Rice": 24.75,
      "FPS_Tehsil": ""
    },
    {
      "State Name": "",
      "FPS_District": "Dimapur",
      "FPS_Name": "MEDZIPHEMA VILLAGE ",
      "FPS_ID": "126800400003",
      "Motorable/Non-Motorable": "Normal",
      "FPS_Lat": "25.75",
      "FPS_Long": "93.86",
      "Allocation_Wheat": 0.0,
      "Allocation_Rice": 56.55,
      "FPS_Tehsil": ""
    },
    {
      "State Name": "",
      "FPS_District": "Dimapur",
      "FPS_Name": "KHAMKARIA VILLAGE",
      "FPS_ID": "126800400004",
      "Motorable/Non-Motorable": "Normal",
      "FPS_Lat": "25.75",
      "FPS_Long": "93.82",
      "Allocation_Wheat": 0.0,
      "Allocation_Rice": 13.6,
      "FPS_Tehsil": ""
    },
    {
      "State Name": "",
      "FPS_District": "Dimapur",
      "FPS_Name": "pherima a village",
      "FPS_ID": "126800400005",
      "Motorable/Non-Motorable": "Normal",
      "FPS_Lat": "25.77",
      "FPS_Long": "93.92",
      "Allocation_Wheat": 0.0,
      "Allocation_Rice": 26.0,
      "FPS_Tehsil": ""
    },
    {
      "State Name": "",
      "FPS_District": "Dimapur",
      "FPS_Name": "pherima b village ",
      "FPS_ID": "126800400006",
      "Motorable/Non-Motorable": "Normal",
      "FPS_Lat": "25.77",
      "FPS_Long": "93.92",
      "Allocation_Wheat": 0.0,
      "Allocation_Rice": 17.55,
      "FPS_Tehsil": ""
    },
    {
      "State Name": "",
      "FPS_District": "Dimapur",
      "FPS_Name": "HEKHESHE VILLAGE",
      "FPS_ID": "126800400007",
      "Motorable/Non-Motorable": "Normal",
      "FPS_Lat": "25.68",
      "FPS_Long": "93.87",
      "Allocation_Wheat": 0.0,
      "Allocation_Rice": 6.7,
      "FPS_Tehsil": ""
    },
    {
      "State Name": "",
      "FPS_District": "Dimapur",
      "FPS_Name": "ZHUIKHU VILLAGE",
      "FPS_ID": "126800400008",
      "Motorable/Non-Motorable": "Normal",
      "FPS_Lat": "25.7",
      "FPS_Long": "93.88",
      "Allocation_Wheat": 0.0,
      "Allocation_Rice": 23.05,
      "FPS_Tehsil": ""
    },
    {
      "State Name": "",
      "FPS_District": "Dimapur",
      "FPS_Name": "seirhima village ",
      "FPS_ID": "126800400009",
      "Motorable/Non-Motorable": "Normal",
      "FPS_Lat": "25.75",
      "FPS_Long": "93.89",
      "Allocation_Wheat": 0.0,
      "Allocation_Rice": 35.9,
      "FPS_Tehsil": ""
    },
    {
      "State Name": "",
      "FPS_District": "Dimapur",
      "FPS_Name": "molvom village ",
      "FPS_ID": "126800400010",
      "Motorable/Non-Motorable": "Normal",
      "FPS_Lat": "25.73",
      "FPS_Long": "93.85",
      "Allocation_Wheat": 0.0,
      "Allocation_Rice": 52.35,
      "FPS_Tehsil": ""
    },
    {
      "State Name": "",
      "FPS_District": "Dimapur",
      "FPS_Name": "MOAVA VILLAGE ",
      "FPS_ID": "126800400011",
      "Motorable/Non-Motorable": "Normal",
      "FPS_Lat": "25.75",
      "FPS_Long": "93.85",
      "Allocation_Wheat": 0.0,
      "Allocation_Rice": 36.45,
      "FPS_Tehsil": ""
    },
    {
      "State Name": "",
      "FPS_District": "Dimapur",
      "FPS_Name": "KHAIBUNG VILLAGE",
      "FPS_ID": "126800400012",
      "Motorable/Non-Motorable": "Normal",
      "FPS_Lat": "25.75",
      "FPS_Long": "93.95",
      "Allocation_Wheat": 0.0,
      "Allocation_Rice": 23.05,
      "FPS_Tehsil": ""
    },
    {
      "State Name": "",
      "FPS_District": "Dimapur",
      "FPS_Name": "BUNGSANG VILLAGE",
      "FPS_ID": "126800400013",
      "Motorable/Non-Motorable": "Normal",
      "FPS_Lat": "25.73",
      "FPS_Long": "93.83",
      "Allocation_Wheat": 0.0,
      "Allocation_Rice": 25.55,
      "FPS_Tehsil": ""
    },
    {
      "State Name": "",
      "FPS_District": "Dimapur",
      "FPS_Name": "KHUOKHIDOLONG VILLAGE",
      "FPS_ID": "126800400014",
      "Motorable/Non-Motorable": "Normal",
      "FPS_Lat": "25.76",
      "FPS_Long": "93.82",
      "Allocation_Wheat": 0.0,
      "Allocation_Rice": 32.1,
      "FPS_Tehsil": ""
    },
    {
      "State Name": "",
      "FPS_District": "Dimapur",
      "FPS_Name": "TSIEPAMA VILLAGE",
      "FPS_ID": "126800400015",
      "Motorable/Non-Motorable": "Normal",
      "FPS_Lat": "25.77",
      "FPS_Long": "93.93",
      "Allocation_Wheat": 0.0,
      "Allocation_Rice": 34.8,
      "FPS_Tehsil": ""
    },
    {
      "State Name": "",
      "FPS_District": "Dimapur",
      "FPS_Name": "PIPHEMA A VILLAGE",
      "FPS_ID": "126800400016",
      "Motorable/Non-Motorable": "Normal",
      "FPS_Lat": "25.75",
      "FPS_Long": "93.95",
      "Allocation_Wheat": 0.0,
      "Allocation_Rice": 26.8,
      "FPS_Tehsil": ""
    },
    {
      "State Name": "",
      "FPS_District": "Dimapur",
      "FPS_Name": "PIPHEMA (NEW) ",
      "FPS_ID": "126800400017",
      "Motorable/Non-Motorable": "Normal",
      "FPS_Lat": "25.74",
      "FPS_Long": "93.95",
      "Allocation_Wheat": 0.0,
      "Allocation_Rice": 7.55,
      "FPS_Tehsil": ""
    },
    {
      "State Name": "",
      "FPS_District": "Dimapur",
      "FPS_Name": "SOCUNOMA VILLAGE",
      "FPS_ID": "126800400018",
      "Motorable/Non-Motorable": "Normal",
      "FPS_Lat": "25.72",
      "FPS_Long": "93.87",
      "Allocation_Wheat": 0.0,
      "Allocation_Rice": 20.6,
      "FPS_Tehsil": ""
    },
    {
      "State Name": "",
      "FPS_District": "Dimapur",
      "FPS_Name": "RUZAPHEMA VILLAGE",
      "FPS_ID": "126800400019",
      "Motorable/Non-Motorable": "Normal",
      "FPS_Lat": "25.75",
      "FPS_Long": "93.86",
      "Allocation_Wheat": 0.0,
      "Allocation_Rice": 56.75,
      "FPS_Tehsil": ""
    },
    {
      "State Name": "",
      "FPS_District": "Peren",
      "FPS_Name": "TSUUMA VILLAGE COUNCIL",
      "FPS_ID": "126800400020",
      "Motorable/Non-Motorable": "Normal",
      "FPS_Lat": "25.68",
      "FPS_Long": "93.86",
      "Allocation_Wheat": 0.0,
      "Allocation_Rice": 14.3,
      "FPS_Tehsil": ""
    },
    {
      "State Name": "",
      "FPS_District": "Peren",
      "FPS_Name": "JARNAPANI VILLAGE",
      "FPS_ID": "126800400022",
      "Motorable/Non-Motorable": "Normal",
      "FPS_Lat": "25.57",
      "FPS_Long": "93.84",
      "Allocation_Wheat": 0.0,
      "Allocation_Rice": 28.55,
      "FPS_Tehsil": ""
    },
    {
      "State Name": "",
      "FPS_District": "Dimapur",
      "FPS_Name": "KEPE ",
      "FPS_ID": "126800400027",
      "Motorable/Non-Motorable": "Normal",
      "FPS_Lat": "25.75",
      "FPS_Long": "93.88",
      "Allocation_Wheat": 0.0,
      "Allocation_Rice": 162.95,
      "FPS_Tehsil": ""
    },
    {
      "State Name": "",
      "FPS_District": "Dimapur",
      "FPS_Name": "PIPHEMA (OLD)",
      "FPS_ID": "126800400029",
      "Motorable/Non-Motorable": "Normal",
      "FPS_Lat": "25.74",
      "FPS_Long": "93.97",
      "Allocation_Wheat": 0.0,
      "Allocation_Rice": 18.4,
      "FPS_Tehsil": ""
    },
    {
      "State Name": "",
      "FPS_District": "Dimapur",
      "FPS_Name": "MS VIZO",
      "FPS_ID": "126800400030",
      "Motorable/Non-Motorable": "Normal",
      "FPS_Lat": "25.75",
      "FPS_Long": "93.88",
      "Allocation_Wheat": 0.0,
      "Allocation_Rice": 156.95,
      "FPS_Tehsil": ""
    },
    {
      "State Name": "",
      "FPS_District": "Dimapur",
      "FPS_Name": "TSIEPAMA MODEL ",
      "FPS_ID": "126800400031",
      "Motorable/Non-Motorable": "Normal",
      "FPS_Lat": "25.77",
      "FPS_Long": "93.93",
      "Allocation_Wheat": 0.0,
      "Allocation_Rice": 63.1,
      "FPS_Tehsil": ""
    },
    {
      "State Name": "",
      "FPS_District": "Dimapur",
      "FPS_Name": "M.S TIR VILLAGE COUNCILL ",
      "FPS_ID": "126800400032",
      "Motorable/Non-Motorable": "Normal",
      "FPS_Lat": "25.85",
      "FPS_Long": "93.83",
      "Allocation_Wheat": 0.0,
      "Allocation_Rice": 7.35,
      "FPS_Tehsil": ""
    },
    {
      "State Name": "",
      "FPS_District": "Dimapur",
      "FPS_Name": "M.S NEIKETOU ",
      "FPS_ID": "126800400033",
      "Motorable/Non-Motorable": "Normal",
      "FPS_Lat": "25.75",
      "FPS_Long": "93.88",
      "Allocation_Wheat": 0.0,
      "Allocation_Rice": 56.45,
      "FPS_Tehsil": ""
    },
    {
      "State Name": "",
      "FPS_District": "Dimapur",
      "FPS_Name": "M.S EDWARD CHONGLOI ",
      "FPS_ID": "126800400034",
      "Motorable/Non-Motorable": "Normal",
      "FPS_Lat": "25.75",
      "FPS_Long": "93.88",
      "Allocation_Wheat": 0.0,
      "Allocation_Rice": 10.5,
      "FPS_Tehsil": ""
    },
    {
      "State Name": "",
      "FPS_District": "Dimapur",
      "FPS_Name": "M.S A THEPA ",
      "FPS_ID": "126800400035",
      "Motorable/Non-Motorable": "Normal",
      "FPS_Lat": "25.75",
      "FPS_Long": "93.87",
      "Allocation_Wheat": 0.0,
      "Allocation_Rice": 7.15,
      "FPS_Tehsil": ""
    },
    {
      "State Name": "",
      "FPS_District": "Dimapur",
      "FPS_Name": "AMALUMA VILLAGE",
      "FPS_ID": "126800500002",
      "Motorable/Non-Motorable": "Normal",
      "FPS_Lat": "25.75",
      "FPS_Long": "93.62",
      "Allocation_Wheat": 0.0,
      "Allocation_Rice": 40.8,
      "FPS_Tehsil": ""
    },
    {
      "State Name": "",
      "FPS_District": "Dimapur",
      "FPS_Name": "PIMLA VILLAGE ",
      "FPS_ID": "126800500003",
      "Motorable/Non-Motorable": "Normal",
      "FPS_Lat": "25.73",
      "FPS_Long": "93.66",
      "Allocation_Wheat": 0.0,
      "Allocation_Rice": 43.35,
      "FPS_Tehsil": ""
    },
    {
      "State Name": "",
      "FPS_District": "Dimapur",
      "FPS_Name": "ZUTOVI VILLAGE",
      "FPS_ID": "126800500004",
      "Motorable/Non-Motorable": "Normal",
      "FPS_Lat": "25.73",
      "FPS_Long": "93.66",
      "Allocation_Wheat": 0.0,
      "Allocation_Rice": 26.65,
      "FPS_Tehsil": ""
    },
    {
      "State Name": "",
      "FPS_District": "Dimapur",
      "FPS_Name": "KHEKIHO VILLAGE",
      "FPS_ID": "126800500005",
      "Motorable/Non-Motorable": "Normal",
      "FPS_Lat": "25.74",
      "FPS_Long": "93.57",
      "Allocation_Wheat": 0.0,
      "Allocation_Rice": 26.75,
      "FPS_Tehsil": ""
    },
    {
      "State Name": "",
      "FPS_District": "Dimapur",
      "FPS_Name": "DISAGAPHU VILLAGE ",
      "FPS_ID": "126800500006",
      "Motorable/Non-Motorable": "Normal",
      "FPS_Lat": "25.77",
      "FPS_Long": "93.68",
      "Allocation_Wheat": 0.0,
      "Allocation_Rice": 12.95,
      "FPS_Tehsil": ""
    },
    {
      "State Name": "",
      "FPS_District": "Dimapur",
      "FPS_Name": "LOTHAVI VILLAGE ",
      "FPS_ID": "126800500007",
      "Motorable/Non-Motorable": "Normal",
      "FPS_Lat": "25.73",
      "FPS_Long": "93.61",
      "Allocation_Wheat": 0.0,
      "Allocation_Rice": 24.9,
      "FPS_Tehsil": ""
    },
    {
      "State Name": "",
      "FPS_District": "Dimapur",
      "FPS_Name": "GANESHNAGAR VILLAGE ",
      "FPS_ID": "126800500008",
      "Motorable/Non-Motorable": "Normal",
      "FPS_Lat": "25.76",
      "FPS_Long": "93.59",
      "Allocation_Wheat": 0.0,
      "Allocation_Rice": 36.15,
      "FPS_Tehsil": ""
    },
    {
      "State Name": "",
      "FPS_District": "Dimapur",
      "FPS_Name": "TOSHIZU VILLAGE",
      "FPS_ID": "126800500009",
      "Motorable/Non-Motorable": "Normal",
      "FPS_Lat": "25.71",
      "FPS_Long": "93.59",
      "Allocation_Wheat": 0.0,
      "Allocation_Rice": 15.55,
      "FPS_Tehsil": ""
    },
    {
      "State Name": "",
      "FPS_District": "Dimapur",
      "FPS_Name": "RAZHAPHE VILLAGE",
      "FPS_ID": "126800500010",
      "Motorable/Non-Motorable": "Normal",
      "FPS_Lat": "25.77",
      "FPS_Long": "93.66",
      "Allocation_Wheat": 0.0,
      "Allocation_Rice": 23.05,
      "FPS_Tehsil": ""
    },
    {
      "State Name": "",
      "FPS_District": "Peren",
      "FPS_Name": "DANIEL VILLAGE ",
      "FPS_ID": "126800500011",
      "Motorable/Non-Motorable": "Normal",
      "FPS_Lat": "25.71",
      "FPS_Long": "93.55",
      "Allocation_Wheat": 0.0,
      "Allocation_Rice": 15.8,
      "FPS_Tehsil": ""
    },
    {
      "State Name": "",
      "FPS_District": "Dimapur",
      "FPS_Name": "SHITOVI VILLAGE",
      "FPS_ID": "126800500012",
      "Motorable/Non-Motorable": "Normal",
      "FPS_Lat": "25.77",
      "FPS_Long": "93.68",
      "Allocation_Wheat": 0.0,
      "Allocation_Rice": 10.8,
      "FPS_Tehsil": ""
    },
    {
      "State Name": "",
      "FPS_District": "Dimapur",
      "FPS_Name": "GHOWOTO VILLAGE",
      "FPS_ID": "126800500013",
      "Motorable/Non-Motorable": "Normal",
      "FPS_Lat": "25.71",
      "FPS_Long": "93.64",
      "Allocation_Wheat": 0.0,
      "Allocation_Rice": 13.65,
      "FPS_Tehsil": ""
    },
    {
      "State Name": "",
      "FPS_District": "Dimapur",
      "FPS_Name": "DOYAPUR VILLAGE",
      "FPS_ID": "126800500014",
      "Motorable/Non-Motorable": "Normal",
      "FPS_Lat": "25.76",
      "FPS_Long": "93.6",
      "Allocation_Wheat": 0.0,
      "Allocation_Rice": 51.65,
      "FPS_Tehsil": ""
    },
    {
      "State Name": "",
      "FPS_District": "Dimapur",
      "FPS_Name": "SHIKUTO (UR) VILLAGE",
      "FPS_ID": "126800500015",
      "Motorable/Non-Motorable": "Normal",
      "FPS_Lat": "25.77",
      "FPS_Long": "93.62",
      "Allocation_Wheat": 0.0,
      "Allocation_Rice": 4.0,
      "FPS_Tehsil": ""
    },
    {
      "State Name": "",
      "FPS_District": "Dimapur",
      "FPS_Name": "KIYETO VILLAGE ",
      "FPS_ID": "126800500016",
      "Motorable/Non-Motorable": "Normal",
      "FPS_Lat": "25.79",
      "FPS_Long": "93.64",
      "Allocation_Wheat": 0.0,
      "Allocation_Rice": 34.4,
      "FPS_Tehsil": ""
    },
    {
      "State Name": "",
      "FPS_District": "Dimapur",
      "FPS_Name": "MANGLAMUKH VILLAGE ",
      "FPS_ID": "126800500017",
      "Motorable/Non-Motorable": "Normal",
      "FPS_Lat": "25.72",
      "FPS_Long": "93.54",
      "Allocation_Wheat": 0.0,
      "Allocation_Rice": 12.65,
      "FPS_Tehsil": ""
    },
    {
      "State Name": "",
      "FPS_District": "Dimapur",
      "FPS_Name": "HAZADISA VILLAGE ",
      "FPS_ID": "126800500018",
      "Motorable/Non-Motorable": "Normal",
      "FPS_Lat": "25.74",
      "FPS_Long": "93.57",
      "Allocation_Wheat": 0.0,
      "Allocation_Rice": 20.85,
      "FPS_Tehsil": ""
    },
    {
      "State Name": "",
      "FPS_District": "Peren",
      "FPS_Name": "KIYEVI VILLAGE ",
      "FPS_ID": "126800500019",
      "Motorable/Non-Motorable": "Normal",
      "FPS_Lat": "25.66",
      "FPS_Long": "93.72",
      "Allocation_Wheat": 0.0,
      "Allocation_Rice": 7.7,
      "FPS_Tehsil": ""
    },
    {
      "State Name": "",
      "FPS_District": "Peren",
      "FPS_Name": "SHIKAVI VILLAGE ",
      "FPS_ID": "126800500020",
      "Motorable/Non-Motorable": "Normal",
      "FPS_Lat": "25.69",
      "FPS_Long": "93.58",
      "Allocation_Wheat": 0.0,
      "Allocation_Rice": 12.75,
      "FPS_Tehsil": ""
    },
    {
      "State Name": "",
      "FPS_District": "Dimapur",
      "FPS_Name": "K XEKIYE VILLAGE ",
      "FPS_ID": "126800500021",
      "Motorable/Non-Motorable": "Normal",
      "FPS_Lat": "25.6915",
      "FPS_Long": "93.6239",
      "Allocation_Wheat": 0.0,
      "Allocation_Rice": 6.0,
      "FPS_Tehsil": ""
    },